id,amnt_water,date,sponsor,altitude,installer,longitude,latitude,name,basin,village,region,region_id,district_id,lga,ward,demand,meeting,recorder,op_mgmnt,op_name,permit,year,e_type,e_type_grp,e_type_class,mgmnt,mgmnt_grp,fee,fee_type,w_quality,quality_grp,w_quantity,quantity_grp,source,source_type,source_class,type,type_grp,status
69572,6000,14/3/2011,Roman,1390,Roman,34.93809275,-9.85632177,none,Lake Nyasa,Mnyusi B,Iringa,11,5,Ludewa,Mundindi,109,TRUE,GeoData Consultants Ltd,VWC,Roman,FALSE,1999,gravity,gravity,gravity,vwc,user-group,pay annually,annually,soft,good,enough,enough,spring,spring,groundwater,communal standpipe,communal standpipe,functional
41119,500,21/3/2011,Caritas,336,DWE,36.4159298,-8.65746276,Tulileli Twaweni,Rufiji,Minazini,Morogoro,5,4,Ulanga,Itete,186,TRUE,GeoData Consultants Ltd,Water Board,Itete wa,TRUE,2006,gravity,gravity,gravity,wug,user-group,pay monthly,monthly,soft,good,enough,enough,river,river/lake,surface,communal standpipe,communal standpipe,functional
35572,0,25/3/2013,Government Of Tanzania,1624,DWE,37.51533082,-3.26034397,Kwa John Mamuye,Pangani,Kotete,Kilimanjaro,3,4,Moshi Rural,Marangu Mashariki,60,FALSE,GeoData Consultants Ltd,VWC,Arisi/himo,TRUE,1972,gravity,gravity,gravity,vwc,user-group,never pay,never pay,soft,good,enough,enough,spring,spring,groundwater,other,other,broken
8857,0,40880,Government Of Tanzania,1799,DWE,38.20481328,-4.6658645,Kwa Mzee Halihaji,Pangani,Kongoloi B,Tanga,4,1,Lushoto,Shume,1,TRUE,GeoData Consultants Ltd,VWC,Mlomboza forest,TRUE,1967,gravity,gravity,gravity,vwc,user-group,never pay,never pay,soft,good,enough,enough,spring,spring,groundwater,communal standpipe,communal standpipe,functional
3516,0,41310,Private,1361,Private,34.97406662,-10.97439546,Kwa Mzee Izack,Ruvuma / Southern Coast,Tope,Ruvuma,10,3,Mbinga,Kilimani,60,,GeoData Consultants Ltd,WUG,Government,TRUE,2011,gravity,gravity,gravity,wug,user-group,unknown,unknown,soft,good,enough,enough,spring,spring,groundwater,communal standpipe,communal standpipe,broken
35205,1000,40666,Danida,1417,DANID,35.549176,-7.7233599,none,Rufiji,Mhanga,Iringa,11,1,Iringa Rural,Nzihi,210,TRUE,GeoData Consultants Ltd,VWC,Nzihi,TRUE,1985,gravity,gravity,gravity,vwc,user-group,pay monthly,monthly,soft,good,dry,dry,spring,spring,groundwater,communal standpipe,communal standpipe,non-functional
26227,0,31/7/2011,Dads,0,DADS,32.61991299,-8.76707178,Simkwaya,Lake Rukwa,Magamba,Mbeya,12,6,Mbozi,Nambinzo,0,FALSE,GeoData Consultants Ltd,VWC,,FALSE,0,india mark ii,india mark ii,handpump,vwc,user-group,pay when scheme fails,on failure,salty,salty,insufficient,insufficient,machine dbh,borehole,groundwater,hand pump,hand pump,non-functional
1339,0,18/3/2013,Government Of Tanzania,833,Government,37.55602543,-3.38645083,Mama Kenedy,Pangani,Mtemboni,Kilimanjaro,3,4,Moshi Rural,Makuyuni,1,TRUE,GeoData Consultants Ltd,Water authority,Mananga-himo pipeline,TRUE,2011,gravity,gravity,gravity,water authority,commercial,never pay,never pay,soft,good,enough,enough,spring,spring,groundwater,communal standpipe,communal standpipe,broken
66389,0,16/1/2013,Wateraid,0,SEMA,32.72768354,-4.50469086,Ngwatu,Lake Tanganyika,Ngwatu,Tabora,14,1,Nzega,Mambali,0,TRUE,GeoData Consultants Ltd,VWC,,TRUE,0,afridev,afridev,handpump,vwc,user-group,pay when scheme fails,on failure,soft,good,insufficient,insufficient,machine dbh,borehole,groundwater,hand pump,hand pump,functional
62299,5000,26/2/2011,Wsdp,98,Wachina,38.85934314,-6.78345548,Juma Mkalabure,Wami / Ruvu,Vikuge,Pwani,6,2,Kibaha,Soga,10,TRUE,GeoData Consultants Ltd,Parastatal,upper Ruvu,TRUE,2010,mono,mono,motorpump,private operator,commercial,pay monthly,monthly,soft,good,insufficient,insufficient,river,river/lake,surface,communal standpipe,communal standpipe,functional
22128,0,24/8/2011,,0,,0,-0.00000002,Budagala,Lake Victoria,Kayenze,Mwanza,19,6,Geita,Chigunga,0,TRUE,GeoData Consultants Ltd,VWC,,TRUE,0,gravity,gravity,gravity,vwc,user-group,never pay,never pay,soft,good,enough,enough,spring,spring,groundwater,hand pump,hand pump,functional
52269,0,41039,Hesaw,0,DWE,0,-0.00000002,Kwa Makala,Lake Victoria,Iwelimo,Mwanza,19,2,Magu,Nyaluhande,0,TRUE,GeoData Consultants Ltd,VWC,,TRUE,0,nira/tanira,nira/tanira,handpump,vwc,user-group,never pay,never pay,salty,salty,enough,enough,shallow well,shallow well,groundwater,hand pump,hand pump,functional
50581,0,40732,Kkkt,0,KKKT,32.68580228,-8.91488999,Geston Kamwela,Lake Rukwa,Mapogoro,Mbeya,12,6,Mbozi,Itaka,0,FALSE,GeoData Consultants Ltd,VWC,,FALSE,0,nira/tanira,nira/tanira,handpump,vwc,user-group,never pay,never pay,soft,good,seasonal,seasonal,shallow well,shallow well,groundwater,hand pump,hand pump,non-functional
44450,100,19/1/2013,Government Of Tanzania,375,District Water Department,38.32922566,-10.38168075,Mzee Liala,Ruvuma / Southern Coast,Majimaji,Lindi,8,3,Nachingwea,Mbondo,259,TRUE,GeoData Consultants Ltd,VWC,Chimbendenga,FALSE,0,mono,mono,motorpump,vwc,user-group,pay per bucket,per bucket,unknown,unknown,dry,dry,machine dbh,borehole,groundwater,communal standpipe multiple,communal standpipe,non-functional
16510,0,13/11/2012,Ministry Of Water,1189,Hesawa,33.96701836,-1.42239949,Sekondari,Lake Victoria,Ntoroko,Mara,20,6,Rorya,Komuge,450,TRUE,GeoData Consultants Ltd,VWC,Mradi wa maji Komuge,FALSE,1983,submersible,submersible,submersible,vwc,user-group,never pay,never pay,soft,good,enough,enough,lake,river/lake,surface,communal standpipe multiple,communal standpipe,non-functional
32892,0,26/7/2011,Si,0,SI,31.57846239,-1.77232903,Kwa Gotfried,Lake Victoria,Kijumbula,Kagera,18,3,Muleba,Nshamba,0,TRUE,GeoData Consultants Ltd,VWC,N,TRUE,0,ksb,submersible,submersible,vwc,user-group,never pay,never pay,soft,good,enough,enough,spring,spring,groundwater,communal standpipe,communal standpipe,non-functional
60194,0,40697,World Bank,251,RWE,38.57946766,-5.22171207,Tambokaleli,Pangani,Station,Tanga,4,2,Korogwe,Mnyuzi,800,TRUE,GeoData Consultants Ltd,VWC,Mnyuzi water supply,FALSE,1967,gravity,gravity,gravity,vwc,user-group,never pay,never pay,soft,good,seasonal,seasonal,river,river/lake,surface,communal standpipe multiple,communal standpipe,functional
31692,0,24/2/2011,Private,-5,Private,39.38913797,-7.10763364,Kwa Dr Adam Mwabulanga,Wami / Ruvu,Mzingezinge,Pwani,60,43,Mkuranga,Vikindu,115,TRUE,GeoData Consultants Ltd,VWC,,FALSE,2009,submersible,submersible,submersible,vwc,user-group,never pay,never pay,soft,good,enough,enough,machine dbh,borehole,groundwater,other,other,functional
2351,300,26/2/2011,Dwe,-2,DWE,38.74926738,-7.87935149,Kibore,Rufiji,Lusende,Pwani,60,53,Rufiji,Mkongo,1,TRUE,GeoData Consultants Ltd,VWC,,TRUE,1974,mono,mono,motorpump,vwc,user-group,other,other,soft,good,insufficient,insufficient,machine dbh,borehole,groundwater,communal standpipe,communal standpipe,non-functional
59735,0,41009,Rwssp,0,WEDECO,34.16111096,-3.16740901,Mwamanota,Internal,Mumunu,Shinyanga,17,6,Meatu,Mwabusalu,0,TRUE,GeoData Consultants Ltd,WUG,None,TRUE,0,nira/tanira,nira/tanira,handpump,wug,user-group,pay per bucket,per bucket,soft,good,enough,enough,shallow well,shallow well,groundwater,hand pump,hand pump,functional
1730,100,20/10/2012,Mwita Kichere,1599,mwita kichere,34.7135397,-1.83714618,Mwita Kichere,Lake Victoria,Center,Mara,20,2,Serengeti,Kisangura,60,FALSE,GeoData Consultants Ltd,Private operator,,,2008,other - rope pump,rope pump,rope pump,private operator,commercial,pay per bucket,per bucket,soft,good,enough,enough,shallow well,shallow well,groundwater,hand pump,hand pump,functional
61200,0,24/7/2011,Drdp Ngo,0,DWE,30.83736754,-1.46121634,Tank La Zahanat,Lake Victoria,Bweyendezi,Kagera,18,1,Karagwe,Nkwenda,0,TRUE,GeoData Consultants Ltd,,,TRUE,0,gravity,gravity,gravity,other,other,never pay,never pay,soft,good,seasonal,seasonal,rainwater harvesting,rainwater harvesting,surface,communal standpipe,communal standpipe,functional
53934,0,40979,Wateraid,0,Water Aid,32.71110001,-5.14671181,Kwa Ramadhan Musa,Lake Tanganyika,Imalauduki,Tabora,14,6,Tabora Urban,Itetemia,0,TRUE,GeoData Consultants Ltd,VWC,,TRUE,0,india mark ii,india mark ii,handpump,vwc,user-group,never pay,never pay,salty,salty,seasonal,seasonal,machine dbh,borehole,groundwater,hand pump,hand pump,non-functional
53655,20,28/2/2011,Water User As,254,Wa,38.35006504,-6.37174185,Kassim,Wami / Ruvu,Mbuyu,Pwani,6,1,Bagamoyo,Msata,20,TRUE,GeoData Consultants Ltd,WUA,Chalinze wate,TRUE,2009,ksb,submersible,submersible,wua,user-group,pay per bucket,per bucket,soft,good,enough,enough,river,river/lake,surface,communal standpipe,communal standpipe,non-functional
17625,0,40794,Kmcl,0,KMCL,0,-0.00000002,Bombani,Lake Tanganyika,Kanegele,Mwanza,19,6,Geita,Kharumwa,0,TRUE,GeoData Consultants Ltd,VWC,Nyamtukuza,TRUE,0,submersible,submersible,submersible,vwc,user-group,never pay,never pay,soft,good,insufficient,insufficient,lake,river/lake,surface,communal standpipe,communal standpipe,functional
61883,500,14/3/2011,Plan Int,317,Plan Int,36.48669063,-8.0823985,Kwandimbo,Rufiji,Ndundu,Morogoro,5,3,Kilombero,Idete,500,TRUE,GeoData Consultants Ltd,,,TRUE,2008,swn 80,swn 80,handpump,vwc,user-group,pay monthly,monthly,soft,good,insufficient,insufficient,shallow well,shallow well,groundwater,hand pump,hand pump,functional
33468,0,20/3/2011,Islamic Found,-18,Is,38.88390109,-6.45185004,Shuleni,Wami / Ruvu,Magomeni B,Pwani,6,1,Bagamoyo,Magomeni,500,TRUE,GeoData Consultants Ltd,Parastatal,,FALSE,2009,india mark ii,india mark ii,handpump,parastatal,parastatal,never pay,never pay,soft,good,enough,enough,shallow well,shallow well,groundwater,hand pump,hand pump,functional
42487,300,41550,Government Of Tanzania,1396,Central govt,37.67524025,-3.61321707,Kwa Iddi,Pangani,Sechuni,Kilimanjaro,3,2,Mwanga,Mwaniko,240,TRUE,GeoData Consultants Ltd,Water Board,Vulue water supply,FALSE,1972,gravity,gravity,gravity,water board,user-group,pay monthly,monthly,soft,good,insufficient,insufficient,river,river/lake,surface,other,other,non-functional
23529,0,22/2/2011,,-33,,39.80624816,-7.86667784,Baleni Primary School,Rufiji,Makongoroni,Pwani,60,63,Mafia,Baleni,500,TRUE,GeoData Consultants Ltd,VWC,,FALSE,0,nira/tanira,nira/tanira,handpump,vwc,user-group,never pay,never pay,salty,salty,enough,enough,shallow well,shallow well,groundwater,hand pump,hand pump,functional
32002,0,40728,Water,0,Commu,35.95491398,-5.88888728,Korongoni,Wami / Ruvu,Kati,Dodoma,1,5,Dodoma Urban,Hombolo,0,TRUE,GeoData Consultants Ltd,VWC,,FALSE,0,other,other,other,vwc,user-group,never pay,never pay,soft,good,dry,dry,shallow well,shallow well,groundwater,other,other,non-functional
13736,0,40670,,0,,33.54740771,-9.22650724,Kwa Mzee Mwalabila,Lake Nyasa,Ndebele,Mbeya,12,4,Rungwe,Kyimo,0,TRUE,GeoData Consultants Ltd,VWC,I,,0,gravity,gravity,gravity,vwc,user-group,never pay,never pay,soft,good,enough,enough,spring,spring,groundwater,communal standpipe,communal standpipe,functional
51593,0,41276,Government Of Tanzania,-10,DWE,39.25866877,-8.50254905,Tanki La Shule,Ruvuma / Southern Coast,Njia Nne,Lindi,80,13,Kilwa,Tingi,550,FALSE,GeoData Consultants Ltd,,,TRUE,2012,gravity,gravity,gravity,other,other,never pay,never pay,soft,good,seasonal,seasonal,rainwater harvesting,rainwater harvesting,surface,other,other,non-functional
37723,0,30/7/2011,Kkkt_makwale,0,KKKT _ Konde and DWE,33.92240722,-9.48559469,Kwa Angolwisye Mwambingu,Lake Nyasa,Masoko,Mbeya,12,3,Kyela,Makwale,0,TRUE,GeoData Consultants Ltd,VWC,Makwale water supplied sche,TRUE,0,gravity,gravity,gravity,vwc,user-group,pay monthly,monthly,soft,good,dry,dry,spring,spring,groundwater,communal standpipe,communal standpipe,non-functional
11198,0,41307,Fin Water,327,FIN WATER,38.69468973,-10.91123407,Minazini,Ruvuma / Southern Coast,Bombani,Mtwara,90,63,Nanyumbu,Maratani,46,TRUE,GeoData Consultants Ltd,VWC,,TRUE,1985,nira/tanira,nira/tanira,handpump,vwc,user-group,never pay,never pay,soft,good,seasonal,seasonal,shallow well,shallow well,groundwater,hand pump,hand pump,non-functional
56327,2000,28/10/2012,Jika,1163,Grobal resource alliance,33.9838924,-1.20985979,Namba Mbili,Lake Victoria,Kuba,Mara,20,6,Rorya,Nyahongo,475,TRUE,GeoData Consultants Ltd,,,TRUE,2011,afridev,afridev,handpump,vwc,user-group,pay monthly,monthly,soft,good,enough,enough,shallow well,shallow well,groundwater,hand pump,hand pump,functional
63627,200,22/2/2011,Bank,2545,Commu,34.01711933,-9.1286384,none,Lake Nyasa,Igawa,Iringa,11,3,Makete,Kitulo,0,TRUE,GeoData Consultants Ltd,VWC,Nkenja,FALSE,2008,gravity,gravity,gravity,vwc,user-group,pay monthly,monthly,soft,good,enough,enough,spring,spring,groundwater,communal standpipe,communal standpipe,functional
29700,10,41342,Giz,812,KILI WATER,37.47430329,-3.38877216,Kwa Mipale,Pangani,Kati Juu,Kilimanjaro,3,4,Moshi Rural,Kirua Vunjo Kusini,5,TRUE,GeoData Consultants Ltd,WUA,Uchira water users association,TRUE,2001,gravity,gravity,gravity,wua,user-group,pay per bucket,per bucket,soft,good,enough,enough,spring,spring,groundwater,communal standpipe,communal standpipe,functional
56242,0,20/7/2011,Hesawa,0,HESAWA,31.69949762,-3.00439511,Kwa Mzee Albert,Lake Victoria,Ibingo,Kagera,18,8,Chato,Bwera,0,TRUE,GeoData Consultants Ltd,WUG,,TRUE,0,swn 80,swn 80,handpump,wug,user-group,never pay,never pay,soft,good,enough,enough,hand dtw,borehole,groundwater,hand pump,hand pump,non-functional
16594,0,40551,,0,,33.15659828,-2.47583747,Kwa Zabron,Lake Victoria,Nyakasenge,Mwanza,19,2,Magu,Kongolo,0,TRUE,GeoData Consultants Ltd,VWC,,TRUE,0,other,other,other,vwc,user-group,never pay,never pay,soft,good,enough,enough,shallow well,shallow well,groundwater,other,other,non-functional
33191,500,40614,Adb,1722,DWE,34.77823438,-8.97895508,Kwa Josefati Mlimbila,Rufiji,Mjimwema,Iringa,11,4,Njombe,Mtwango,35,TRUE,GeoData Consultants Ltd,VWC,Mawande gravity Scheme,FALSE,2008,gravity,gravity,gravity,vwc,user-group,pay monthly,monthly,soft,good,enough,enough,spring,spring,groundwater,communal standpipe,communal standpipe,functional
12768,33,41344,Ces(gmbh),694,DWE,37.45824673,-3.4874663,Kwa Agnes Zakaria,Pangani,Ngasinyi,Kilimanjaro,3,4,Moshi Rural,Kahe,75,TRUE,GeoData Consultants Ltd,Water Board,Kirua kahe pumping water trust,TRUE,2008,submersible,submersible,submersible,water board,user-group,pay per bucket,per bucket,soft,good,enough,enough,machine dbh,borehole,groundwater,communal standpipe,communal standpipe,functional
74176,0,17/3/2013,Government Of Tanzania,991,DWE,37.37037474,-3.30815036,Kwa Msendo,Pangani,Kiwalaa,Kilimanjaro,3,4,Moshi Rural,Mbokomu,100,TRUE,GeoData Consultants Ltd,VWC,Mbokomu east,FALSE,1963,gravity,gravity,gravity,vwc,user-group,unknown,unknown,soft,good,enough,enough,spring,spring,groundwater,communal standpipe,communal standpipe,functional
29047,300,20/3/2011,Co,311,Co,36.99608253,-7.59686177,Kwa Gwebe,Rufiji,Mwaya,Morogoro,5,1,Kilosa,Kidodi,90,TRUE,GeoData Consultants Ltd,VWC,It,TRUE,2011,gravity,gravity,gravity,wug,user-group,pay when scheme fails,on failure,soft,good,enough,enough,river,river/lake,surface,communal standpipe,communal standpipe,functional
68659,0,18/10/2012,Government Of Tanzania,0,Government,33.78748088,-3.51298448,Kwa Rugandu Basu,Internal,Chamani,Shinyanga,17,2,Maswa,Budekwa,0,TRUE,GeoData Consultants Ltd,VWC,,FALSE,0,other,other,other,vwc,user-group,other,other,soft,good,enough,enough,machine dbh,borehole,groundwater,other,other,non-functional
51358,0,27/1/2013,Mdrdp,1948,MDRDP,35.36755884,-3.94181256,Garbabi Primary School,Internal,Nari,Manyara,21,3,Mbulu,Tlawi,362,TRUE,GeoData Consultants Ltd,Parastatal,,TRUE,1997,other,other,other,parastatal,parastatal,never pay,never pay,soft,good,seasonal,seasonal,rainwater harvesting,rainwater harvesting,surface,communal standpipe,communal standpipe,functional
11581,50,23/1/2013,Lga,386,LGA,38.60065259,-10.6347662,Mkurugenzi,Ruvuma / Southern Coast,Mwinyi,Mtwara,90,33,Masasi,Namatutwe,250,TRUE,GeoData Consultants Ltd,VWC,,TRUE,2009,india mark ii,india mark ii,handpump,vwc,user-group,pay per bucket,per bucket,salty,salty,enough,enough,machine dbh,borehole,groundwater,hand pump,hand pump,non-functional
49692,0,19/3/2011,Government Of Tanzania,0,Gover,36.37738319,-6.71055225,Kapwaga,Wami / Ruvu,Kikurunge Chini,Dodoma,1,1,Mpwapwa,Kibakwe,0,TRUE,GeoData Consultants Ltd,VWC,Kiba,TRUE,0,other,other,other,vwc,user-group,pay monthly,monthly,soft,good,insufficient,insufficient,spring,spring,groundwater,other,other,non-functional
62759,0,29/3/2011,Bsf,0,DWE,35.43698745,-5.22752333,Tumbakose,Internal,Mirembe,Dodoma,1,1,Kondoa,Kwamtoro,0,TRUE,GeoData Consultants Ltd,VWC,Tumb,FALSE,0,cemo,other motorpump,motorpump,vwc,user-group,pay per bucket,per bucket,salty abandoned,salty,enough,enough,machine dbh,borehole,groundwater,communal standpipe,communal standpipe,functional
50470,0,22/10/2012,World Vision,0,World vision,32.28227648,-3.40282438,Bunigonzi No 1,Lake Tanganyika,Bunigonzi No 1,Shinyanga,17,5,Bukombe,Ushirika,0,TRUE,GeoData Consultants Ltd,VWC,,TRUE,0,nira/tanira,nira/tanira,handpump,vwc,user-group,unknown,unknown,soft,good,dry,dry,shallow well,shallow well,groundwater,hand pump,hand pump,non-functional
55010,0,40547,Dhv,386,DWE,37.79203542,-7.24196371,Kwa Mzee Rajabu Zinga,Wami / Ruvu,Sanga B,Morogoro,5,2,Morogoro Rural,Kolero,100,TRUE,GeoData Consultants Ltd,VWC,,TRUE,1997,swn 80,swn 80,handpump,vwc,user-group,pay when scheme fails,on failure,soft,good,insufficient,insufficient,shallow well,shallow well,groundwater,hand pump,hand pump,broken
46315,30,41366,Government Of Tanzania,1087,MUWASA,31.08207682,-6.34683759,Grace Poulo,Lake Rukwa,Magazini,Rukwa,15,1,Mpanda,Kashaulili,1,TRUE,GeoData Consultants Ltd,Water authority,,TRUE,2010,gravity,gravity,gravity,water authority,commercial,pay per bucket,per bucket,soft,good,enough,enough,machine dbh,borehole,groundwater,communal standpipe,communal standpipe,broken
1972,50,40547,Government Of Tanzania,617,GIDA contractor,38.0179955,-5.49399569,Mangidi A,Pangani,Mangidi,Tanga,4,6,Handeni,Vibaoni,30,TRUE,GeoData Consultants Ltd,VWC,WSDP,FALSE,2009,submersible,submersible,submersible,vwc,user-group,pay per bucket,per bucket,soft,good,enough,enough,dam,dam,surface,communal standpipe multiple,communal standpipe,functional
305,100,31/1/2013,Danida,1016,DWE,29.88351835,-4.95888295,Kwa Posiano Butoke,Lake Tanganyika,Kilemba,Kigoma,16,3,Kigoma Rural,Kandaga,250,TRUE,GeoData Consultants Ltd,WUG,Kalenge water project,TRUE,2006,gravity,gravity,gravity,vwc,user-group,pay monthly,monthly,soft,good,enough,enough,river,river/lake,surface,communal standpipe,communal standpipe,functional
28734,1000,21/3/2011,Dhv,341,DWE,36.38094451,-8.75865056,Kwa Itambiko,Rufiji,Legeza Mwendo,Morogoro,5,4,Ulanga,Mtimbira,260,TRUE,GeoData Consultants Ltd,Water Board,Mtimbira,TRUE,1995,gravity,gravity,gravity,wug,user-group,pay monthly,monthly,soft,good,enough,enough,river,river/lake,surface,communal standpipe,communal standpipe,functional
39345,0,28/7/2011,Danida,0,Central government,33.89996738,-9.43420067,Kwa Tom Mwankenja,Lake Nyasa,Mpunguti,Mbeya,12,3,Kyela,Ipinda,0,TRUE,GeoData Consultants Ltd,VWC,Ngamanga water supplied sch,TRUE,0,gravity,gravity,gravity,vwc,user-group,pay monthly,monthly,soft,good,dry,dry,spring,spring,groundwater,communal standpipe,communal standpipe,non-functional
11416,0,26/10/2012,Dwsp,0,DWE,0,-0.00000002,none,Lake Victoria,Ikungulyambeshi,Shinyanga,17,1,Bariadi,Kasoli,0,,GeoData Consultants Ltd,WUG,,FALSE,0,other,other,other,wug,user-group,unknown,unknown,soft,good,enough,enough,shallow well,shallow well,groundwater,other,other,non-functional
19849,500,40758,Government Of Tanzania,1653,DWE,38.24301841,-4.4904437,Msikitini,Pangani,Kiyanga,Tanga,4,1,Lushoto,Mtae,1,TRUE,GeoData Consultants Ltd,VWC,Shengui forest,TRUE,2005,gravity,gravity,gravity,vwc,user-group,pay monthly,monthly,soft,good,enough,enough,spring,spring,groundwater,communal standpipe,communal standpipe,functional
65761,0,29/7/2011,Swedish,0,Sengerema Water Department,32.61149185,-2.53276065,Not Known,Lake Victoria,Kasahunga,Mwanza,19,5,Kwimba,Mwagi,0,TRUE,GeoData Consultants Ltd,VWC,None,TRUE,0,nira/tanira,nira/tanira,handpump,vwc,user-group,never pay,never pay,salty,salty,dry,dry,shallow well,shallow well,groundwater,hand pump,hand pump,functional
64247,6,41336,Ces(gmbh),1603,DWE,37.45781477,-3.2980325,Kwa Felisiana Malya,Pangani,Chakimalya,Kilimanjaro,3,4,Moshi Rural,Kirua Vunjo Magharibi,50,TRUE,GeoData Consultants Ltd,Water Board,Kirua kahe gravity water supply trust,TRUE,2008,gravity,gravity,gravity,water board,user-group,pay per bucket,per bucket,soft,good,enough,enough,spring,spring,groundwater,communal standpipe,communal standpipe,functional
36200,3500,18/2/2013,Wateraid,1203,SEMA,34.2673793,-4.51767098,Kwa Kititimo,Internal,Kisua,Singida,13,1,Iramba,Mtoa,455,TRUE,GeoData Consultants Ltd,VWC,,TRUE,2010,afridev,afridev,handpump,vwc,user-group,pay annually,annually,soft,good,enough,enough,machine dbh,borehole,groundwater,hand pump,hand pump,functional
48254,50,21/3/2013,0,14,0,39.19551832,-6.89744146,Kwa Mwakasitu,Wami / Ruvu,Mtaa Wa Kitunda Kati,Dar es Salaam,7,2,Ilala,Kitunda,150,,GeoData Consultants Ltd,Private operator,,FALSE,2010,submersible,submersible,submersible,private operator,commercial,pay per bucket,per bucket,soft,good,enough,enough,machine dbh,borehole,groundwater,communal standpipe,communal standpipe,functional
60963,0,25/10/2012,Tasaf,0,TASAF,32.87187859,-4.82903405,Kwa Mwana,Lake Tanganyika,Mwamhala,Tabora,14,3,Uyui,Ikongolo,0,TRUE,GeoData Consultants Ltd,VWC,,TRUE,0,india mark ii,india mark ii,handpump,vwc,user-group,never pay,never pay,soft,good,insufficient,insufficient,shallow well,shallow well,groundwater,hand pump,hand pump,functional
72425,1000,40637,Rc Church,2143,RC CHURCH,34.41088844,-9.20046063,Kwa Beneti Sanga,Rufiji,Ngongomi,Iringa,11,4,Njombe,Wangama,125,TRUE,GeoData Consultants Ltd,VWC,imalilo water supply scheme,TRUE,2000,gravity,gravity,gravity,vwc,user-group,pay annually,annually,soft,good,enough,enough,spring,spring,groundwater,communal standpipe,communal standpipe,functional
19967,0,40979,Tasaf,0,TASAF,32.98942449,-4.91139181,Mwadawa Ramadhani,Lake Tanganyika,Upuge B,Tabora,14,3,Uyui,Upuge,0,TRUE,GeoData Consultants Ltd,VWC,Upuge water supply,TRUE,0,other,other,other,vwc,user-group,never pay,never pay,coloured,colored,insufficient,insufficient,shallow well,shallow well,groundwater,hand pump,hand pump,functional
57797,10,41335,Cafod,1059,CBHCC,36.94684423,-3.39604284,Kikatiti Sokoni,Pangani,Kambi Ya Mkaa,Arusha,2,7,Meru,Kikatiti,500,TRUE,GeoData Consultants Ltd,Water Board,Kimasaki gravity water supply,TRUE,2008,gravity,gravity,gravity,water board,user-group,pay per bucket,per bucket,soft,good,insufficient,insufficient,river,river/lake,surface,communal standpipe,communal standpipe,functional
30601,0,41010,Hesawa,1319,DWE,33.91091158,-1.97110091,Kwa Makoye Sabuni,Lake Victoria,Nyamunyo,Mara,20,4,Bunda,Sazira,230,TRUE,GeoData Consultants Ltd,WUG,,FALSE,1988,other,other,other,wug,user-group,unknown,unknown,salty,salty,enough,enough,shallow well,shallow well,groundwater,other,other,non-functional
49120,0,20/10/2012,Tcrs.Tlc,0,TCRS/TLC,32.12466753,-4.5845965,Ayoub Mathias,Lake Tanganyika,19,Tabora,14,4,Urambo,Milambo,0,TRUE,GeoData Consultants Ltd,VWC,,TRUE,0,afridev,afridev,handpump,vwc,user-group,never pay,never pay,soft,good,enough,enough,shallow well,shallow well,groundwater,hand pump,hand pump,functional
38024,0,15/2/2013,Lwi,1343,LWI,34.12856629,-2.89058047,Duduli,Lake Victoria,Mbesi,Shinyanga,17,1,Bariadi,Lagangabilili,500,FALSE,GeoData Consultants Ltd,WUG,,FALSE,2007,india mark ii,india mark ii,handpump,wug,user-group,other,other,salty abandoned,salty,insufficient,insufficient,shallow well,shallow well,groundwater,hand pump,hand pump,functional
42770,0,29/3/2013,Government Of Tanzania,1490,Central Government,37.57874836,-3.27435659,Kitiko,Pangani,Madukani,Kilimanjaro,3,4,Moshi Rural,Mwika Kusini,1,TRUE,GeoData Consultants Ltd,WUA,Mtiro pipeline,TRUE,0,gravity,gravity,gravity,wua,user-group,never pay,never pay,soft,good,insufficient,insufficient,spring,spring,groundwater,communal standpipe,communal standpipe,functional
64060,0,15/7/2011,Action Contre La Faim,0,DWE,31.13109185,-3.07397196,Kwa Revelian,Lake Tanganyika,Nyangaliso,Kagera,18,4,Biharamulo,Kalenge,0,TRUE,GeoData Consultants Ltd,VWC,,TRUE,0,nira/tanira,nira/tanira,handpump,vwc,user-group,never pay,never pay,unknown,unknown,insufficient,insufficient,shallow well,shallow well,groundwater,hand pump,hand pump,non-functional
16994,0,27/2/2013,Kiliwater,1797,Kiliwater,37.57132626,-3.06218277,Kwa Ewarld,Pangani,Kilawoyi,Kilimanjaro,3,1,Rombo,Ubetu Kahe,1,TRUE,GeoData Consultants Ltd,Company,EKTM 3 water supply,TRUE,2009,gravity,gravity,gravity,company,commercial,pay monthly,monthly,soft,good,insufficient,insufficient,spring,spring,groundwater,communal standpipe,communal standpipe,non-functional
16924,0,21/3/2011,Kibaha Town Council,55,DWE,39.04712953,-6.70377915,Yowela,Wami / Ruvu,Kidimu,Pwani,6,2,Kibaha,Tumbi,1,TRUE,GeoData Consultants Ltd,VWC,,TRUE,2009,other,other,other,vwc,user-group,never pay,never pay,soft,good,insufficient,insufficient,shallow well,shallow well,groundwater,hand pump,hand pump,non-functional
27028,0,23/3/2011,Government Of Tanzania,414,RWE,38.21005579,-4.80478242,Kwaboniface,Pangani,Kiwanjani,Tanga,4,2,Korogwe,Mazinde,350,TRUE,GeoData Consultants Ltd,VWC,Mazinde water supply,FALSE,1970,gravity,gravity,gravity,vwc,user-group,never pay,never pay,soft,good,enough,enough,river,river/lake,surface,communal standpipe,communal standpipe,functional
67950,0,26/2/2011,Kkkt,2076,Commu,34.24695325,-9.37148289,none,Lake Nyasa,Utsewa,Iringa,11,3,Makete,Lupalilo,0,TRUE,GeoData Consultants Ltd,VWC,Tandal,FALSE,1984,gravity,gravity,gravity,vwc,user-group,never pay,never pay,soft,good,enough,enough,spring,spring,groundwater,communal standpipe,communal standpipe,functional
13536,0,16/2/2013,Kata,1263,Kata,37.97821832,-4.39786283,Kanisani,Pangani,Marumbi,Kilimanjaro,3,3,Same,Mpinji,680,FALSE,GeoData Consultants Ltd,VWC,Kimara Water Supply,TRUE,2010,gravity,gravity,gravity,vwc,user-group,never pay,never pay,soft,good,insufficient,insufficient,spring,spring,groundwater,communal standpipe,communal standpipe,functional
45516,0,15/3/2013,Lawatefuka Water Supply,1290,Lawatefuka water sup,37.08368365,-3.18147516,Kwa Wifred Mathayo,Pangani,Nasai,Kilimanjaro,3,7,Siha,Siha Kaskazini,1,TRUE,GeoData Consultants Ltd,Water Board,BL Eligudi,TRUE,2002,gravity,gravity,gravity,water board,user-group,pay monthly,monthly,soft,good,enough,enough,spring,spring,groundwater,communal standpipe,communal standpipe,non-functional
53930,0,15/3/2013,0,-54,0,39.41581127,-6.86582565,Kwa Mohamed Bi Selemani,Wami / Ruvu,Mbwamaji,Dar es Salaam,7,3,Temeke,Somangira,140,TRUE,GeoData Consultants Ltd,VWC,,FALSE,1970,mono,mono,motorpump,vwc,user-group,never pay,never pay,salty,salty,dry,dry,machine dbh,borehole,groundwater,other,other,non-functional
43314,1000,21/3/2011,Sabemo,1732,Chamavita,38.33489551,-4.7304862,Kwa Mzee Selemani Athumani,Pangani,Bandi,Tanga,4,1,Lushoto,Kwai,1,TRUE,GeoData Consultants Ltd,VWC,Mangamba forest,TRUE,1989,gravity,gravity,gravity,vwc,user-group,pay monthly,monthly,soft,good,enough,enough,spring,spring,groundwater,communal standpipe,communal standpipe,broken
69168,5,13/3/2013,Germany Republi,917,CES,37.12804102,-3.37455275,Kwa Magreth Mseka,Pangani,Shabaha,Kilimanjaro,3,5,Hai,Hai Urban,500,TRUE,GeoData Consultants Ltd,Water Board,Uroki-Bomang'ombe water sup,TRUE,1999,gravity,gravity,gravity,water board,user-group,pay per bucket,per bucket,soft,good,enough,enough,spring,spring,groundwater,communal standpipe,communal standpipe,functional
59297,0,13/2/2013,Dmdd,1584,Dmdd,35.31633651,-4.52238736,Kalela,Internal,Watena,Manyara,21,2,Hanang,Mogitu,335,TRUE,GeoData Consultants Ltd,VWC,Gamowaso,TRUE,2003,gravity,gravity,gravity,vwc,user-group,never pay,never pay,soft,good,insufficient,insufficient,spring,spring,groundwater,communal standpipe,communal standpipe,functional
72327,0,16/2/2013,District Council,1274,District council,37.62537551,-3.16353541,Kwa Ulirki Fabian,Pangani,Mongou,Kilimanjaro,3,1,Rombo,Kirwa Keni,1,TRUE,GeoData Consultants Ltd,Company,Mrao water supply,TRUE,2008,gravity,gravity,gravity,company,commercial,pay monthly,monthly,soft,good,enough,enough,spring,spring,groundwater,communal standpipe,communal standpipe,non-functional
3549,0,40851,Danida,0,DANIDA,33.69101393,-8.89765835,Kwa Robert Mwanandenje,Rufiji,Mdwadwa,Mbeya,12,2,Mbeya Rural,Ulenje,0,FALSE,GeoData Consultants Ltd,VWC,,FALSE,0,gravity,gravity,gravity,wug,user-group,pay when scheme fails,on failure,soft,good,enough,enough,river,river/lake,surface,communal standpipe,communal standpipe,non-functional
69674,100000,14/2/2013,Danida,965,DANIDA,35.89631804,-10.15685616,Kwa Donatus Luambano,Lake Nyasa,Muungano,Ruvuma,10,5,Namtumbo,Kitanda,250,TRUE,GeoData Consultants Ltd,WUG,,FALSE,1998,swn 80,swn 80,handpump,wug,user-group,pay monthly,monthly,soft,good,enough,enough,shallow well,shallow well,groundwater,hand pump,hand pump,functional
1331,50,18/2/2011,W.B,93,DWE,39.12900919,-7.55002607,Mng'Ombe,Rufiji,Muungano,Pwani,60,53,Rufiji,Bungu,1,TRUE,GeoData Consultants Ltd,VWC,,TRUE,2005,gravity,gravity,gravity,vwc,user-group,pay per bucket,per bucket,soft,good,insufficient,insufficient,spring,spring,groundwater,communal standpipe multiple,communal standpipe,non-functional
65944,0,23/3/2011,Danida,28,DA,38.89308551,-6.5605825,Gengeni,Wami / Ruvu,Gengeni,Pwani,6,1,Bagamoyo,Kiromo,200,TRUE,GeoData Consultants Ltd,VWC,Bagamoyo wate,TRUE,1987,ksb,submersible,submersible,vwc,user-group,never pay,never pay,soft,good,enough,enough,river,river/lake,surface,communal standpipe,communal standpipe,non-functional
17186,0,40854,Peters,0,DWE,31.459034,-1.19457304,Kwamshumba,Lake Victoria,Mushasha,Kagera,18,7,Misenyi,Kyaka,0,TRUE,GeoData Consultants Ltd,VWC,,TRUE,0,india mark ii,india mark ii,handpump,vwc,user-group,pay monthly,monthly,soft,good,insufficient,insufficient,machine dbh,borehole,groundwater,hand pump,hand pump,functional
24218,0,15/7/2011,Government Of Tanzania,1157,DWE,31.18939453,-6.3772774,Kwa Emmanuel Mapalala,Lake Rukwa,Cha Mashariki,Rukwa,15,1,Mpanda,Nsimbo,60,,GeoData Consultants Ltd,,Tank refu Mtakuja,TRUE,1972,gravity,gravity,gravity,unknown,unknown,unknown,unknown,unknown,unknown,unknown,unknown,spring,spring,groundwater,communal standpipe,communal standpipe,non-functional
59874,0,28/7/2011,Medicine,0,LOCAL CONTRACT,31.82735182,-1.21231446,Kalema Dispensary,Lake Victoria,Mlongo,Kagera,18,2,Bukoba Rural,Buhendangabo,0,TRUE,GeoData Consultants Ltd,VWC,,TRUE,0,gravity,gravity,gravity,vwc,user-group,never pay,never pay,soft,good,insufficient,insufficient,rainwater harvesting,rainwater harvesting,surface,communal standpipe,communal standpipe,non-functional
67249,0,19/7/2011,World Vision,0,KAEMP,31.60769907,-1.51707093,Katirengerwa,Lake Victoria,Kaziramfuka,Kagera,18,2,Bukoba Rural,Mikoni,0,TRUE,GeoData Consultants Ltd,VWC,,TRUE,0,gravity,gravity,gravity,vwc,user-group,never pay,never pay,soft,good,enough,enough,spring,spring,groundwater,improved spring,improved spring,functional
49585,0,40734,Sida,0,Central government,33.86084491,-9.59608383,Kwa Mwabibi Mstafa,Lake Nyasa,Mikoroshini,Mbeya,12,3,Kyela,Kyela Urban,0,TRUE,GeoData Consultants Ltd,Water authority,Kanga water supplied scheme,TRUE,0,gravity,gravity,gravity,water authority,commercial,never pay,never pay,soft,good,dry,dry,river,river/lake,surface,communal standpipe,communal standpipe,non-functional
66722,0,41253,Tassaf,0,TASSAF,33.68305952,-3.0631815,Nyumba Ya Mganga,Lake Victoria,Kashishi,Shinyanga,17,2,Maswa,Kadoto,0,TRUE,GeoData Consultants Ltd,WUG,,FALSE,0,gravity,gravity,gravity,wug,user-group,never pay,never pay,soft,good,insufficient,insufficient,rainwater harvesting,rainwater harvesting,surface,communal standpipe,communal standpipe,functional
60562,20,16/3/2013,Government Of Tanzania,955,DWE,36.84433338,-3.49379453,Kwa Gidion,Pangani,Msumbiji,Arusha,2,2,Arusha Rural,Nduruma,200,TRUE,GeoData Consultants Ltd,VWC,Machumba estate pipe line,TRUE,1970,gravity,gravity,gravity,vwc,user-group,pay per bucket,per bucket,soft,good,insufficient,insufficient,spring,spring,groundwater,communal standpipe,communal standpipe,functional
13298,0,41070,Dwsp,0,DWSP,33.30186487,-3.56184459,Lyaganabiho,Internal,Beda,Shinyanga,17,3,Shinyanga Rural,Pandagichiza,0,TRUE,GeoData Consultants Ltd,WUG,,TRUE,0,swn 80,swn 80,handpump,wug,user-group,never pay,never pay,soft,good,enough,enough,shallow well,shallow well,groundwater,hand pump,hand pump,functional
5145,0,23/8/2011,Undp/ilo,1742,DWE,31.66540008,-8.53261571,Kwa Leoterimfite,Lake Tanganyika,Sundu,Rukwa,15,2,Sumbawanga Rural,Mwazye,420,TRUE,GeoData Consultants Ltd,VWC,Kalesha water supply,TRUE,1990,gravity,gravity,gravity,vwc,user-group,never pay,never pay,soft,good,enough,enough,river,river/lake,surface,communal standpipe,communal standpipe,non-functional
58711,50,22/3/2011,Private Individual,-9,Da,38.93546282,-6.50832047,Bahati,Wami / Ruvu,Kiromo B,Pwani,6,1,Bagamoyo,Kiromo,30,TRUE,GeoData Consultants Ltd,Company,Bagamoyo wate,TRUE,2011,ksb,submersible,submersible,private operator,commercial,pay per bucket,per bucket,soft,good,enough,enough,river,river/lake,surface,communal standpipe,communal standpipe,functional
24707,0,21/3/2013,Peter Tesha,1179,DWE,37.35885458,-3.26993713,Kwa Dokari,Pangani,Sia,Kilimanjaro,3,4,Moshi Rural,Uru Shimbwe,100,TRUE,GeoData Consultants Ltd,VWC,Uru shimbwe,TRUE,2000,gravity,gravity,gravity,vwc,user-group,never pay,never pay,soft,good,enough,enough,spring,spring,groundwater,communal standpipe,communal standpipe,functional
36453,0,24/10/2012,Halmashauri Ya Wilaya Sikonge,0,Halmashauri ya wilaya sikonge,33.00859108,-5.89453583,Kwa Anthon Kadokado,Lake Tanganyika,Bondeni,Tabora,14,5,Sikonge,Kiloleli,0,TRUE,GeoData Consultants Ltd,VWC,Mradi wa maji wa Kiloleli,TRUE,0,other,other,other,vwc,user-group,never pay,never pay,soft,good,dry,dry,dam,dam,surface,communal standpipe,communal standpipe,non-functional
41711,0,40758,Tasaf,0,DWE,38.76657283,-4.90804979,Tasaf,Pangani,Darajani,Tanga,4,8,Mkinga,Mhinduro,60,TRUE,GeoData Consultants Ltd,VWC,Shallow well,TRUE,2002,nira/tanira,nira/tanira,handpump,vwc,user-group,never pay,never pay,soft,good,insufficient,insufficient,shallow well,shallow well,groundwater,hand pump,hand pump,functional
11736,500,28/2/2011,Tz Japan,1649,DWE,34.91687863,-8.96603222,Kwa Anzwelise Chongolo,Rufiji,Igongolo Kati,Iringa,11,4,Njombe,Igongolo,120,TRUE,GeoData Consultants Ltd,VWC,Igongolo gravity water sche,FALSE,2006,gravity,gravity,gravity,vwc,user-group,pay monthly,monthly,soft,good,enough,enough,spring,spring,groundwater,communal standpipe,communal standpipe,functional
35199,0,16/3/2011,Tardo,1727,Tardo,38.27077889,-4.6653689,Msiktini,Pangani,Tiku,Tanga,4,1,Lushoto,Malindi,1,TRUE,GeoData Consultants Ltd,VWC,Mlomboza forest,TRUE,1985,gravity,gravity,gravity,vwc,user-group,never pay,never pay,soft,good,enough,enough,spring,spring,groundwater,communal standpipe,communal standpipe,functional
10744,0,17/1/2013,Fini Water,408,Fini Water,37.90908308,-10.41059587,Bombani,Ruvuma / Southern Coast,Mapinduzi,Lindi,8,3,Nachingwea,Kiegei,100,TRUE,GeoData Consultants Ltd,VWC,,FALSE,1985,other,other,other,vwc,user-group,other,other,unknown,unknown,dry,dry,shallow well,shallow well,groundwater,other,other,non-functional
29814,0,18/2/2013,Germany,970,DWE,35.41650721,-10.58363344,Kwa Vintani,Ruvuma / Southern Coast,Raha Leo B,Ruvuma,10,2,Songea Rural,Maposeni,0,TRUE,GeoData Consultants Ltd,VWC,Mradi wa maji wa maposeni,TRUE,2009,gravity,gravity,gravity,vwc,user-group,never pay,never pay,soft,good,insufficient,insufficient,river,river/lake,surface,communal standpipe,communal standpipe,functional
47345,0,41366,Fin Water,332,FIN WATER,38.23518781,-10.89465951,Shuleni,Ruvuma / Southern Coast,Mkwajuni,Mtwara,90,63,Nanyumbu,Likokona,89,TRUE,GeoData Consultants Ltd,VWC,,TRUE,2005,india mark ii,india mark ii,handpump,vwc,user-group,never pay,never pay,salty,salty,enough,enough,machine dbh,borehole,groundwater,hand pump,hand pump,non-functional
40889,600,28/1/2013,Isf,819,DWE,29.74781199,-4.90391278,Mashariki,Lake Tanganyika,Kusini,Kigoma,16,3,Kigoma Rural,Simbo,190,TRUE,GeoData Consultants Ltd,WUG,Mkongoro Two,TRUE,2009,gravity,gravity,gravity,vwc,user-group,pay monthly,monthly,soft,good,enough,enough,river,river/lake,surface,communal standpipe multiple,communal standpipe,functional
1472,0,41518,Tuwasa,0,TUWASA,32.79325322,-5.00716917,Kwa Mama Sinzo,Lake Tanganyika,Kazaroho,Tabora,14,6,Tabora Urban,Mbugani,0,FALSE,GeoData Consultants Ltd,Other,Mradi wa maji wa mbugani,TRUE,0,other,other,other,other,other,pay per bucket,per bucket,soft,good,enough,enough,dam,dam,surface,communal standpipe,communal standpipe,functional
39211,0,16/10/2012,Rwssp,0,DWE,32.01657933,-3.98624502,Maendeleo,Lake Tanganyika,Nyalwele,Shinyanga,17,3,Kahama,Bulungwa,0,TRUE,GeoData Consultants Ltd,,,TRUE,0,nira/tanira,nira/tanira,handpump,wug,user-group,unknown,unknown,soft,good,enough,enough,shallow well,shallow well,groundwater,hand pump,hand pump,functional
69673,0,40851,Rc Church,0,RC Church,33.68957995,-8.91206551,Kkanisani,Rufiji,Wanging'Ombe,Mbeya,12,2,Mbeya Rural,Ulenje,0,FALSE,GeoData Consultants Ltd,VWC,,FALSE,0,gravity,gravity,gravity,wug,user-group,pay when scheme fails,on failure,soft,good,enough,enough,river,river/lake,surface,communal standpipe,communal standpipe,non-functional
31699,0,40547,,0,,33.79986287,-9.37088485,Mbambo,Lake Nyasa,Kambasegele,Mbeya,12,4,Rungwe,Kambasegese,0,TRUE,GeoData Consultants Ltd,VWC,K,,0,gravity,gravity,gravity,vwc,user-group,unknown,unknown,soft,good,enough,enough,river,river/lake,surface,communal standpipe,communal standpipe,non-functional
5452,0,17/1/2013,Wateraid,1515,WATER AID,34.74502032,-4.77106127,Muungano,Internal,Mkaratusi,Singida,13,4,Singida Urban,Mandewa,1,TRUE,GeoData Consultants Ltd,WUG,,TRUE,2005,mono,mono,motorpump,wug,user-group,never pay,never pay,soft,good,dry,dry,machine dbh,borehole,groundwater,communal standpipe multiple,communal standpipe,broken
46370,0,40547,Water,0,Commu,35.77851378,-6.42824792,Shule Ya Msingi Nkulabi,Rufiji,Mkwawa,Dodoma,1,5,Dodoma Urban,Mpunguzi,0,TRUE,GeoData Consultants Ltd,VWC,Nkul,FALSE,0,mono,mono,motorpump,private operator,commercial,pay per bucket,per bucket,soft,good,dry,dry,machine dbh,borehole,groundwater,communal standpipe multiple,communal standpipe,non-functional
44748,0,41313,Danida,453,DANID,34.8091814,-11.30361856,Kwa Mzee Kanyera,Lake Nyasa,Kilosa Chini,Ruvuma,10,3,Mbinga,Kilosa,156,TRUE,GeoData Consultants Ltd,VWC,DANIDA,TRUE,1992,gravity,gravity,gravity,vwc,user-group,never pay,never pay,soft,good,enough,enough,spring,spring,groundwater,communal standpipe multiple,communal standpipe,functional
54979,10,41337,Giz,842,KILI WATER,37.46667761,-3.37939655,Kwa Andrea Kolie,Pangani,Tela Juu,Kilimanjaro,3,4,Moshi Rural,Kirua Vunjo Kusini,40,TRUE,GeoData Consultants Ltd,WUA,Uchira water users association,TRUE,2001,gravity,gravity,gravity,wua,user-group,pay per bucket,per bucket,soft,good,enough,enough,spring,spring,groundwater,communal standpipe,communal standpipe,functional
62363,0,40671,Hifab,0,Hesawa,33.42432817,-2.86257759,Ilamata A,Lake Victoria,Ilamata,Mwanza,19,4,Kwimba,Nyambiti,0,TRUE,GeoData Consultants Ltd,VWC,,TRUE,0,swn 80,swn 80,handpump,vwc,user-group,never pay,never pay,soft,good,enough,enough,shallow well,shallow well,groundwater,hand pump,hand pump,functional
16040,0,30/10/2012,Rwssp,0,DWE,0,-0.00000002,Mizalelo,Lake Victoria,Igatwa,Shinyanga,17,1,Bariadi,Bumera,0,TRUE,GeoData Consultants Ltd,WUG,,FALSE,0,nira/tanira,nira/tanira,handpump,wug,user-group,other,other,soft,good,enough,enough,shallow well,shallow well,groundwater,hand pump,hand pump,functional
72774,500,28/2/2011,Adb,1673,DWE,34.93358233,-9.01648953,Kwa Isaac Gwivaha,Rufiji,Ibiki Kati,Iringa,11,4,Njombe,Igongolo,40,TRUE,GeoData Consultants Ltd,VWC,Ibiki gravity water scheme,FALSE,2008,gravity,gravity,gravity,vwc,user-group,pay monthly,monthly,soft,good,enough,enough,spring,spring,groundwater,communal standpipe,communal standpipe,functional
33662,0,25/2/2013,Amref,235,Amref,39.78461566,-10.47510728,Kwa Mzee Likoki,Ruvuma / Southern Coast,Sokondary,Mtwara,99,1,Mtwara Rural,Mnima,400,TRUE,GeoData Consultants Ltd,VWC,Namaukula water supply,TRUE,2012,mono,mono,motorpump,vwc,user-group,unknown,unknown,soft,good,enough,enough,machine dbh,borehole,groundwater,communal standpipe multiple,communal standpipe,non-functional
34823,500,25/2/2013,Tasaf,666,CJEJOW CONSTRUCTION,36.19342106,-11.30755506,Kwa Saidi Halifa,Ruvuma / Southern Coast,Mchomoro,Ruvuma,10,5,Namtumbo,Lusewa,300,TRUE,GeoData Consultants Ltd,WUG,,FALSE,2007,swn 80,swn 80,handpump,wug,user-group,pay monthly,monthly,soft,good,insufficient,insufficient,shallow well,shallow well,groundwater,hand pump,hand pump,functional
39887,0,40979,Government Of Tanzania,0,Central government,33.01662909,-4.93082707,Shabani Mbogo,Lake Tanganyika,Simbo 3,Tabora,14,3,Uyui,Magiri,0,TRUE,GeoData Consultants Ltd,VWC,Maguri water supply,TRUE,0,other,other,other,vwc,user-group,never pay,never pay,soft,good,dry,dry,spring,spring,groundwater,communal standpipe multiple,communal standpipe,non-functional
9429,0,26/3/2011,Go,636,Go,36.91809604,-7.44282794,Kwa Chanuka,Rufiji,Mgalika,Morogoro,5,1,Kilosa,Mikumi,250,TRUE,GeoData Consultants Ltd,VWC,,TRUE,1985,other,other,other,vwc,user-group,never pay,never pay,soft,good,enough,enough,shallow well,shallow well,groundwater,other,other,non-functional
29710,0,40855,Hifab,0,Hesawa,33.38142949,-2.78103159,Mwagi B,Lake Victoria,Mwagi B,Mwanza,19,4,Kwimba,Mwagi,0,TRUE,GeoData Consultants Ltd,VWC,,TRUE,0,swn 80,swn 80,handpump,vwc,user-group,never pay,never pay,soft,good,enough,enough,shallow well,shallow well,groundwater,hand pump,hand pump,functional
730,0,13/7/2011,Concern World Wide,0,DWE,31.22226346,-3.03724518,Kwa Rugabanya,Lake Tanganyika,Lusahunga Kati,Kagera,18,4,Biharamulo,Lusahunga,0,TRUE,GeoData Consultants Ltd,VWC,Kaguruka Water Supply,TRUE,0,gravity,gravity,gravity,vwc,user-group,pay per bucket,per bucket,soft,good,enough,enough,spring,spring,groundwater,communal standpipe,communal standpipe,functional
21383,500,18/2/2013,Danida,1050,DANIDA,35.77902379,-10.5459247,Kwa Haji Salumu,Lake Nyasa,Msikitini,Ruvuma,10,5,Namtumbo,Msindo,420,TRUE,GeoData Consultants Ltd,WUG,,FALSE,1987,swn 80,swn 80,handpump,wug,user-group,pay monthly,monthly,soft,good,insufficient,insufficient,shallow well,shallow well,groundwater,hand pump,hand pump,functional
67634,1500,41610,Government Of Tanzania,701,District council,37.54983568,-3.54812862,Kwa Adinani Mgala,Pangani,Majengo,Kilimanjaro,3,2,Mwanga,Kileo,400,TRUE,GeoData Consultants Ltd,WUA,Kifaru water Supply,TRUE,2009,submersible,submersible,submersible,wua,user-group,pay monthly,monthly,soft,good,insufficient,insufficient,machine dbh,borehole,groundwater,communal standpipe,communal standpipe,functional
24867,0,41070,Dwsp,0,DWE,33.53661233,-3.59297946,Kwa Magile,Internal,Kolandoto,Shinyanga,17,7,Shinyanga Urban,Kolandoto,0,FALSE,GeoData Consultants Ltd,WUG,,FALSE,0,nira/tanira,nira/tanira,handpump,wug,user-group,never pay,never pay,soft,good,enough,enough,shallow well,shallow well,groundwater,hand pump,hand pump,functional
47459,1000,40577,Danida,1592,DANID,35.63419525,-7.85014451,none,Rufiji,Igavilo,Iringa,11,1,Iringa Rural,Mseke,1,TRUE,GeoData Consultants Ltd,VWC,Meseke,TRUE,1984,gravity,gravity,gravity,vwc,user-group,pay monthly,monthly,soft,good,enough,enough,spring,spring,groundwater,communal standpipe,communal standpipe,functional
31042,0,40979,Netherlands,0,DWE,33.91236514,-3.10767317,Mwashegeshi,Lake Victoria,Chugambuli,Shinyanga,17,2,Maswa,Ngulinguli,0,TRUE,GeoData Consultants Ltd,VWC,,FALSE,0,walimi,other handpump,handpump,vwc,user-group,other,other,soft,good,enough,enough,machine dbh,borehole,groundwater,hand pump,hand pump,functional
29830,0,41253,Dwsp,0,DWSP,33.0284339,-3.73275198,Shuleni,Lake Victoria,Sangilwa,Shinyanga,17,3,Shinyanga Rural,Ilola,0,TRUE,GeoData Consultants Ltd,WUG,,TRUE,0,nira/tanira,nira/tanira,handpump,wug,user-group,never pay,never pay,soft,good,insufficient,insufficient,shallow well,shallow well,groundwater,hand pump,hand pump,functional
18316,0,40789,Bsf,0,Gove,35.66512719,-6.37677639,Zahana,Internal,Mandel,Dodoma,1,6,Bahi,Chibelela,0,TRUE,GeoData Consultants Ltd,VWC,Chib,TRUE,0,other,other,other,vwc,user-group,never pay,never pay,soft,good,seasonal,seasonal,rainwater harvesting,rainwater harvesting,surface,communal standpipe,communal standpipe,functional
16795,0,24/1/2013,Tcrs,1145,Idara ya maji,34.88356114,-5.78415519,Karibu Na Anderson,Internal,Muhalala Kati,Singida,13,3,Manyoni,Manyoni,250,TRUE,GeoData Consultants Ltd,,Muhalala water supply,FALSE,1994,nira/tanira,nira/tanira,handpump,vwc,user-group,never pay,never pay,soft,good,enough,enough,shallow well,shallow well,groundwater,hand pump,hand pump,functional
24741,100,15/1/2013,Lips,405,District Water Department,38.80447199,-10.29457879,Kwa Binti Said,Ruvuma / Southern Coast,Chiminula A,Lindi,8,3,Nachingwea,Mpiruka,560,TRUE,GeoData Consultants Ltd,VWC,,TRUE,2004,nira/tanira,nira/tanira,handpump,vwc,user-group,pay per bucket,per bucket,milky,milky,seasonal,seasonal,shallow well,shallow well,groundwater,hand pump,hand pump,functional
20681,0,16/1/2013,Lips,138,District Council,39.4338151,-10.03508443,Tenkini,Ruvuma / Southern Coast,Namatili,Lindi,80,23,Lindi Rural,Chiponda,230,TRUE,GeoData Consultants Ltd,VWC,LIPS Water Scheme,FALSE,2004,gravity,gravity,gravity,vwc,user-group,never pay,never pay,soft,good,enough,enough,river,river/lake,surface,communal standpipe,communal standpipe,broken
33601,50,18/3/2013,0,-35,0,39.52081696,-7.1199834,Kwa Mmadi,Wami / Ruvu,Buyuni Centre,Dar es Salaam,7,3,Temeke,Pemba Mnazi,20,TRUE,GeoData Consultants Ltd,VWC,,FALSE,2000,mono,mono,motorpump,vwc,user-group,pay per bucket,per bucket,soft,good,enough,enough,machine dbh,borehole,groundwater,communal standpipe,communal standpipe,functional
15280,2400,19/3/2011,Conce,1328,DWE,34.7601888,-8.64776066,none,Rufiji,I,Iringa,11,2,Mufindi,Idunda,0,TRUE,GeoData Consultants Ltd,VWC,Kit,TRUE,0,gravity,gravity,gravity,vwc,user-group,pay annually,annually,soft,good,enough,enough,spring,spring,groundwater,communal standpipe,communal standpipe,functional
45977,0,21/7/2011,Aar,0,COCANE,30.56300925,-2.77709307,Kukatanga,Lake Victoria,Nyabianga Ya Kati,Kagera,18,30,Ngara,Bukiriro,0,TRUE,GeoData Consultants Ltd,WUG,,FALSE,0,india mark ii,india mark ii,handpump,wug,user-group,never pay,never pay,soft,good,enough,enough,shallow well,shallow well,groundwater,hand pump,hand pump,functional
50661,0,23/7/2011,Cocen,0,DWE,30.88972459,-1.53594359,Kwalwimo,Lake Victoria,Isingiro,Kagera,18,1,Karagwe,Nkwenda,0,TRUE,GeoData Consultants Ltd,,,TRUE,0,other,other,other,vwc,user-group,never pay,never pay,soft,good,dry,dry,shallow well,shallow well,groundwater,hand pump,hand pump,non-functional
73373,0,41581,Government Of Tanzania,1321,Central govt,37.6515359,-3.62242155,Kwa Shang'A,Pangani,Ngweni,Kilimanjaro,3,2,Mwanga,Kifula,300,TRUE,GeoData Consultants Ltd,VWC,Vulue water supply,FALSE,1972,gravity,gravity,gravity,vwc,user-group,never pay,never pay,soft,good,insufficient,insufficient,river,river/lake,surface,other,other,non-functional
67433,0,19/1/2013,Sema,1538,SEMA,34.76272634,-4.30776106,Kitumba,Internal,Mzimba,Singida,13,1,Iramba,Nduguti,225,TRUE,GeoData Consultants Ltd,WUG,Mwando water supply,TRUE,2004,afridev,afridev,handpump,wug,user-group,never pay,never pay,soft,good,enough,enough,machine dbh,borehole,groundwater,hand pump,hand pump,functional
7170,0,40949,Rwsp,0,RWSP,32.87361914,-3.29289538,Shuleni,Lake Victoria,Kadoto,Shinyanga,17,3,Shinyanga Rural,Salawe,0,TRUE,GeoData Consultants Ltd,WUG,,TRUE,0,afridev,afridev,handpump,wug,user-group,never pay,never pay,salty,salty,enough,enough,machine dbh,borehole,groundwater,hand pump,hand pump,functional
15358,5000,41519,Danida,572,DANIDA,37.16959606,-10.87676104,Kwa Omar Sajisa,Ruvuma / Southern Coast,Shuleni,Ruvuma,10,1,Tunduru,Nandembo,1,TRUE,GeoData Consultants Ltd,VWC,,FALSE,1998,swn 80,swn 80,handpump,vwc,user-group,pay annually,annually,soft,good,enough,enough,machine dbh,borehole,groundwater,hand pump,hand pump,functional
25913,0,40789,Government Of Tanzania,0,Gove,35.59538597,-6.4395627,Mganga,Internal,Kawawa,Dodoma,1,6,Bahi,Mtitaa,0,TRUE,GeoData Consultants Ltd,VWC,Mtit,TRUE,0,mono,mono,motorpump,vwc,user-group,pay per bucket,per bucket,soft,good,enough,enough,machine dbh,borehole,groundwater,communal standpipe,communal standpipe,functional
60297,0,29/1/2013,Father Bonifasi,308,Ndanda missions,38.98505832,-10.32467745,Majilima,Ruvuma / Southern Coast,Gulioni,Lindi,80,53,Ruangwa,Malolo,560,TRUE,GeoData Consultants Ltd,VWC,Michenga,TRUE,1998,submersible,submersible,submersible,vwc,user-group,never pay,never pay,soft,good,enough,enough,machine dbh,borehole,groundwater,communal standpipe,communal standpipe,non-functional
7003,0,17/4/2011,,0,,33.63673844,-8.76163706,Msikitini,Rufiji,Mbugani,Mbeya,12,7,Mbarali,Ruiwa,0,TRUE,GeoData Consultants Ltd,VWC,,TRUE,0,nira/tanira,nira/tanira,handpump,vwc,user-group,pay annually,annually,soft,good,enough,enough,shallow well,shallow well,groundwater,hand pump,hand pump,functional
5206,50,24/3/2011,Private Individual,11,Da,38.99081825,-6.53651936,Mkanyagae,Wami / Ruvu,Mchanga Wa Kichwa A,Pwani,6,1,Bagamoyo,Zinga/Ikerege,30,TRUE,GeoData Consultants Ltd,Company,Bagamoyo wate,TRUE,2008,ksb,submersible,submersible,private operator,commercial,pay per bucket,per bucket,soft,good,enough,enough,river,river/lake,surface,communal standpipe,communal standpipe,functional
32606,0,23/10/2012,Dwsp,1338,DWE,34.15852039,-2.9646603,Machibya,Lake Victoria,Igunang'Ombe,Shinyanga,17,1,Bariadi,Lagangabilili,300,TRUE,GeoData Consultants Ltd,WUG,,FALSE,1995,swn 80,swn 80,handpump,wug,user-group,never pay,never pay,soft,good,insufficient,insufficient,shallow well,shallow well,groundwater,hand pump,hand pump,broken
66248,0,30/7/2011,Redep,0,DWE,33.08133938,-2.41370922,Kwa Elikana,Lake Victoria,Igulibi,Mwanza,19,2,Magu,Shishani,0,TRUE,GeoData Consultants Ltd,VWC,,TRUE,0,other,other,other,vwc,user-group,never pay,never pay,soft,good,dry,dry,shallow well,shallow well,groundwater,other,other,non-functional
46191,500,21/3/2011,Rc,2050,ACRA,34.65734874,-9.3411649,Asheli Kaoge,Rufiji,Uhepera,Iringa,11,4,Njombe,Imalinyi,50,TRUE,GeoData Consultants Ltd,VWC,Tove mtwango,TRUE,2008,gravity,gravity,gravity,wua,user-group,pay monthly,monthly,soft,good,enough,enough,spring,spring,groundwater,communal standpipe,communal standpipe,functional
73992,0,15/3/2013,Mission,1398,Mission,34.99630209,-11.19687469,Shuleni,Ruvuma / Southern Coast,Litindo Mjini,Ruvuma,10,3,Mbinga,Kingerikiti,268,,GeoData Consultants Ltd,VWC,Mission,TRUE,2009,gravity,gravity,gravity,parastatal,parastatal,unknown,unknown,soft,good,enough,enough,spring,spring,groundwater,communal standpipe,communal standpipe,broken
39444,0,16/3/2011,Nethe,184,DWE,37.57850478,-7.44523239,Kwa Diwinge,Wami / Ruvu,Bondeni,Morogoro,5,2,Morogoro Rural,Kisaki,320,TRUE,GeoData Consultants Ltd,VWC,,TRUE,1982,swn 80,swn 80,handpump,vwc,user-group,pay when scheme fails,on failure,soft,good,unknown,unknown,shallow well,shallow well,groundwater,hand pump,hand pump,non-functional
65843,0,41457,Danida,1266,TCRS,30.48931283,-3.62819727,Lugomelo,Lake Tanganyika,Nyerere,Kigoma,16,1,Kibondo,Kazazi,1500,TRUE,GeoData Consultants Ltd,VWC,,FALSE,2006,nira/tanira,nira/tanira,handpump,vwc,user-group,unknown,unknown,soft,good,seasonal,seasonal,shallow well,shallow well,groundwater,hand pump,hand pump,functional
37522,200,18/1/2013,Dwe,1237,DWE,30.3192299,-4.31201781,Kwa Sumbuko,Lake Tanganyika,Rusesa,Kigoma,16,2,Kasulu,Kitagata,250,TRUE,GeoData Consultants Ltd,Water authority,Nyachenda,TRUE,2003,gravity,gravity,gravity,vwc,user-group,pay monthly,monthly,soft,good,enough,enough,spring,spring,groundwater,communal standpipe,communal standpipe,functional
11191,0,30/1/2013,Government Of Tanzania,1124,DWE,30.1180191,-4.82902659,Zahanati,Lake Tanganyika,Luguvu,Kigoma,16,2,Kasulu,Rusesa,740,TRUE,GeoData Consultants Ltd,Water authority,,TRUE,2010,india mark ii,india mark ii,handpump,water board,user-group,never pay,never pay,salty,salty,enough,enough,machine dbh,borehole,groundwater,hand pump,hand pump,functional
30671,0,29/10/2012,Government Of Tanzania,0,DWE,32.85558594,-3.94794517,Sokoni,Internal,Nsojo,Tabora,14,1,Nzega,Igusule,0,FALSE,GeoData Consultants Ltd,VWC,,TRUE,0,mono,mono,motorpump,vwc,user-group,never pay,never pay,soft,good,enough,enough,machine dbh,borehole,groundwater,communal standpipe multiple,communal standpipe,non-functional
38563,0,26/10/2012,Wamarekani,0,Maswi company,0,-0.00000002,Kwa Nduta,Lake Victoria,Mwabayanda,Mwanza,19,2,Magu,Kalemela,0,TRUE,GeoData Consultants Ltd,VWC,,TRUE,0,india mark ii,india mark ii,handpump,vwc,user-group,never pay,never pay,soft,good,dry,dry,machine dbh,borehole,groundwater,hand pump,hand pump,non-functional
8879,0,41192,Adb,0,DWE,33.78466711,-3.72624692,Shule,Internal,Bulilwa,Shinyanga,17,8,Kishapu,Mwamashele,0,FALSE,GeoData Consultants Ltd,Parastatal,,FALSE,0,gravity,gravity,gravity,parastatal,parastatal,unknown,unknown,soft,good,seasonal,seasonal,rainwater harvesting,rainwater harvesting,surface,communal standpipe,communal standpipe,broken
16570,0,41366,Dwssp,0,DWE,0,-0.00000002,Mkombozi,Lake Victoria,Tala,Shinyanga,17,1,Bariadi,Bumera,0,TRUE,GeoData Consultants Ltd,WUG,,FALSE,0,nira/tanira,nira/tanira,handpump,wug,user-group,unknown,unknown,unknown,unknown,dry,dry,shallow well,shallow well,groundwater,hand pump,hand pump,non-functional
50658,0,27/7/2011,Wananchi,0,Wananchi,33.87436623,-9.48594185,Kwa Mama Debora,Lake Nyasa,Juu,Mbeya,12,3,Kyela,Ikama,0,TRUE,GeoData Consultants Ltd,Water authority,Kanga water supplied scheme,TRUE,0,gravity,gravity,gravity,water authority,commercial,pay monthly,monthly,soft,good,enough,enough,spring,spring,groundwater,communal standpipe,communal standpipe,functional
28644,0,30/7/2011,Oxfam,0,OXFAM,30.51318212,-2.51309608,Kanisani Anglican,Lake Victoria,Kumutumba,Kagera,18,30,Ngara,Kirushya,0,TRUE,GeoData Consultants Ltd,VWC,Murubila spring source,FALSE,0,gravity,gravity,gravity,vwc,user-group,never pay,never pay,soft,good,enough,enough,spring,spring,groundwater,communal standpipe,communal standpipe,functional
36407,500,23/2/2013,Lamp,1442,DWE,35.61652654,-4.26072254,Tita,Internal,Tita,Manyara,21,1,Babati,Arri,1600,TRUE,GeoData Consultants Ltd,VWC,,TRUE,1995,nira/tanira,nira/tanira,handpump,vwc,user-group,pay monthly,monthly,soft,good,enough,enough,shallow well,shallow well,groundwater,hand pump,hand pump,functional
68995,0,28/1/2013,Fw,332,FW,39.00497633,-10.80867395,Bombani,Ruvuma / Southern Coast,Keko,Mtwara,90,33,Masasi,Nanjota,1,TRUE,GeoData Consultants Ltd,VWC,,TRUE,1980,other,other,other,vwc,user-group,unknown,unknown,soft,good,dry,dry,shallow well,shallow well,groundwater,other,other,non-functional
48576,2000,17/2/2013,Government Of Tanzania,1604,DWE,30.03265906,-4.60864695,Majimeru,Lake Tanganyika,Kibimba,Kigoma,16,2,Kasulu,Muzye,540,TRUE,GeoData Consultants Ltd,Water authority,,TRUE,2003,other,other,other,water board,user-group,pay when scheme fails,on failure,soft,good,enough,enough,spring,spring,groundwater,improved spring,improved spring,functional
64646,0,13/3/2013,Government Of Tanzania,1312,Central govt,37.64424263,-3.64966297,Zahanati,Pangani,Mamba,Kilimanjaro,3,2,Mwanga,Shinghatini,80,TRUE,GeoData Consultants Ltd,Water Board,Mbakwe water supply,FALSE,1973,gravity,gravity,gravity,water board,user-group,never pay,never pay,soft,good,insufficient,insufficient,river,river/lake,surface,other,other,non-functional
1848,50,22/2/2013,,1329,,34.95856158,-4.83410741,Hawena Salum,Internal,Mkova,Singida,13,2,Singida Rural,Mgori,450,TRUE,GeoData Consultants Ltd,VWC,M,,2000,mono,mono,motorpump,vwc,user-group,pay per bucket,per bucket,soft,good,insufficient,insufficient,machine dbh,borehole,groundwater,communal standpipe,communal standpipe,functional
68770,50,23/2/2011,Private,148,Priva,38.93853758,-7.72578383,Majidi A Midumo,Rufiji,Makaoni,Pwani,60,53,Rufiji,Kibiti,1,FALSE,GeoData Consultants Ltd,Private operator,,FALSE,2009,other,other,other,private operator,commercial,pay per bucket,per bucket,salty,salty,enough,enough,machine dbh,borehole,groundwater,communal standpipe multiple,communal standpipe,functional
47269,0,40578,Kkkt,0,KKKT,32.73831307,-9.09397251,Ndezi Mkhondya,Lake Rukwa,Sambandole,Mbeya,12,6,Mbozi,Ihanda,0,TRUE,GeoData Consultants Ltd,VWC,,FALSE,0,nira/tanira,nira/tanira,handpump,vwc,user-group,pay when scheme fails,on failure,soft,good,insufficient,insufficient,shallow well,shallow well,groundwater,hand pump,hand pump,functional
28182,0,21/2/2013,World Vision,860,World vision,37.12209086,-3.49511211,Kibaoni,Pangani,Naepo,Manyara,21,4,Simanjiro,Mererani,200,TRUE,GeoData Consultants Ltd,VWC,Naepo pipe scheme,TRUE,2010,submersible,submersible,submersible,vwc,user-group,unknown,unknown,soft,good,enough,enough,machine dbh,borehole,groundwater,other,other,functional
24575,0,40855,Hesawa,0,DWE,0,-0.00000002,Tambereja,Lake Tanganyika,N/Center,Mwanza,19,6,Geita,Mwingiro,0,TRUE,GeoData Consultants Ltd,VWC,Borehole,TRUE,0,afridev,afridev,handpump,vwc,user-group,never pay,never pay,soft,good,insufficient,insufficient,machine dbh,borehole,groundwater,hand pump,hand pump,functional
13796,0,40728,Kkkt,0,KKKT,33.18819464,-8.93232273,Ezekia Mwamboki,Lake Rukwa,Ifufu,Mbeya,12,6,Mbozi,Ruanda,0,TRUE,GeoData Consultants Ltd,VWC,,FALSE,0,nira/tanira,nira/tanira,handpump,vwc,user-group,never pay,never pay,soft,good,insufficient,insufficient,shallow well,shallow well,groundwater,hand pump,hand pump,functional
22829,0,14/2/2013,Danida,1317,TCRS,30.90700311,-3.63610349,Kwa Biloli,Lake Tanganyika,Katonzovu,Kigoma,16,1,Kibondo,Murungu,350,TRUE,GeoData Consultants Ltd,VWC,,FALSE,2006,india mark ii,india mark ii,handpump,vwc,user-group,unknown,unknown,soft,good,dry,dry,machine dbh,borehole,groundwater,hand pump,hand pump,non-functional
44211,500,16/7/2011,Government Of Tanzania,1779,DWE,31.52037479,-8.17732626,Musa Mloezi,Lake Tanganyika,Malangilisho,Rukwa,15,2,Sumbawanga Rural,Msanzi,50,TRUE,GeoData Consultants Ltd,VWC,Msanzi Water Supply Sc,TRUE,1972,gravity,gravity,gravity,vwc,user-group,pay when scheme fails,on failure,soft,good,enough,enough,river,river/lake,surface,communal standpipe,communal standpipe,functional
2555,500,24/3/2011,Ir,325,Ir,37.0142962,-7.55701457,Chisero,Rufiji,Ikoya,Morogoro,5,1,Kilosa,Kidodi,120,TRUE,GeoData Consultants Ltd,VWC,,TRUE,1982,swn 80,swn 80,handpump,vwc,user-group,pay when scheme fails,on failure,soft,good,enough,enough,shallow well,shallow well,groundwater,hand pump,hand pump,functional
56361,0,25/10/2012,Rural Water Supply And Sanitat,0,DWE,32.09573844,-3.40372521,Nanda B,Lake Tanganyika,Nanda B,Shinyanga,17,5,Bukombe,Mbogwe,0,TRUE,GeoData Consultants Ltd,WUG,,TRUE,0,nira/tanira,nira/tanira,handpump,wug,user-group,unknown,unknown,salty,salty,insufficient,insufficient,shallow well,shallow well,groundwater,hand pump,hand pump,functional
15329,100,14/3/2011,Government Of Tanzania,2144,Commu,34.02239443,-9.27923956,none,Lake Nyasa,Mgombezi,Iringa,11,3,Makete,Iniho,0,TRUE,GeoData Consultants Ltd,WUA,Iniho,FALSE,1989,gravity,gravity,gravity,wua,user-group,pay monthly,monthly,soft,good,enough,enough,spring,spring,groundwater,communal standpipe,communal standpipe,non-functional
20073,0,40606,,0,,34.31442244,-8.67445042,Kwa Mwanjali,Rufiji,Usalama,Mbeya,12,7,Mbarali,Ubaruku,0,TRUE,GeoData Consultants Ltd,VWC,,TRUE,0,gravity,gravity,gravity,vwc,user-group,never pay,never pay,soft,good,seasonal,seasonal,river,river/lake,surface,communal standpipe,communal standpipe,broken
73389,0,40640,Shirika La Kinamama Na Watot,0,DWE,33.15471686,-9.19880832,Kimembe,Lake Nyasa,Kimembe,Mbeya,12,6,Mbozi,Nyimbili,0,TRUE,GeoData Consultants Ltd,VWC,,TRUE,0,gravity,gravity,gravity,vwc,user-group,pay monthly,monthly,soft,good,enough,enough,river,river/lake,surface,communal standpipe,communal standpipe,functional
31799,0,19/7/2011,Mbozi Secondary School,0,Mbozi Secondary School,32.92687691,-9.01637297,Chanzo Cha Maji,Lake Rukwa,Matula A,Mbeya,12,6,Mbozi,Igamba,0,TRUE,GeoData Consultants Ltd,Trust,,TRUE,0,gravity,gravity,gravity,vwc,user-group,never pay,never pay,soft,good,enough,enough,spring,spring,groundwater,communal standpipe,communal standpipe,functional
65928,0,41396,Government Of Tanzania,1079,DWE,31.05585493,-5.14138875,Kwa Shaban Mkoa,Lake Tanganyika,Itebula Kati,Kigoma,16,3,Kigoma Rural,Nguruka,360,FALSE,GeoData Consultants Ltd,VWC,,TRUE,1974,other,other,other,vwc,user-group,unknown,unknown,soft,good,dry,dry,shallow well,shallow well,groundwater,other,other,non-functional
27387,100,26/2/2013,,1566,,34.85759993,-4.56752503,Sambiga,Internal,Maliasili,Singida,13,2,Singida Rural,Mtinko,1,TRUE,GeoData Consultants Ltd,VWC,K,,2000,mono,mono,motorpump,vwc,user-group,pay per bucket,per bucket,soft,good,insufficient,insufficient,machine dbh,borehole,groundwater,communal standpipe,communal standpipe,broken
15907,0,19/2/2013,W.B,1206,DEE,35.90554264,-4.27905679,Kwa Tlemo,Internal,Gedamar B,Manyara,21,1,Simanjiro,Loibor Siret,120,TRUE,GeoData Consultants Ltd,Water Board,Gedamar water supply,TRUE,2012,gravity,gravity,gravity,vwc,user-group,never pay,never pay,soft,good,enough,enough,river,river/lake,surface,communal standpipe multiple,communal standpipe,functional
44949,0,41276,Finw,346,FinW,39.52315923,-10.58710663,Kwa Chinamwaka,Ruvuma / Southern Coast,Mhoro,Mtwara,9,4,Tandahimba,Mkonjowano,300,TRUE,GeoData Consultants Ltd,Water Board,Borehole,TRUE,1982,submersible,submersible,submersible,vwc,user-group,never pay,never pay,soft,good,dry,dry,machine dbh,borehole,groundwater,communal standpipe multiple,communal standpipe,non-functional
54212,0,40636,Government Of Tanzania,87,DWE,38.89405875,-5.145552,Codek,Pangani,Migombani,Tanga,4,3,Muheza,Ngomeni,650,TRUE,GeoData Consultants Ltd,VWC,,FALSE,1964,other,other,other,vwc,user-group,never pay,never pay,salty,salty,insufficient,insufficient,shallow well,shallow well,groundwater,other,other,non-functional
46549,0,40979,Government Of Tanzania,0,Central government,32.9754289,-4.91800442,Zahanati,Lake Tanganyika,Upuge A,Tabora,14,3,Uyui,Upuge,0,TRUE,GeoData Consultants Ltd,VWC,Upuge water supply,TRUE,0,mono,mono,motorpump,vwc,user-group,never pay,never pay,soft,good,insufficient,insufficient,machine dbh,borehole,groundwater,communal standpipe,communal standpipe,non-functional
19894,300,41367,District Council,1380,District Council,37.6695532,-3.69905554,Mtii A,Pangani,Some,Kilimanjaro,3,2,Mwanga,Kirongwe,30,TRUE,GeoData Consultants Ltd,WUA,Churu water supply,FALSE,2007,gravity,gravity,gravity,wua,user-group,pay monthly,monthly,soft,good,insufficient,insufficient,spring,spring,groundwater,communal standpipe,communal standpipe,functional
20028,6000,14/3/2011,Roman,1335,Roman,34.95403156,-9.86733493,none,Lake Nyasa,Myoruwa,Iringa,11,5,Ludewa,Mundindi,80,TRUE,GeoData Consultants Ltd,VWC,Roman,FALSE,1999,gravity,gravity,gravity,vwc,user-group,pay annually,annually,soft,good,enough,enough,spring,spring,groundwater,communal standpipe,communal standpipe,functional
68333,200,40636,Dhv,366,DWE,36.76071536,-8.96319839,Kwakapewa,Rufiji,Chiraga,Morogoro,5,4,Ulanga,Euga,50,TRUE,GeoData Consultants Ltd,,,TRUE,1994,swn 80,swn 80,handpump,vwc,user-group,pay monthly,monthly,salty,salty,enough,enough,shallow well,shallow well,groundwater,hand pump,hand pump,functional
22178,0,25/1/2013,Hesawa,1413,Hesawa,34.3755704,-1.80972223,Wambura Matyenye,Lake Victoria,Nyakirurumo,Mara,20,2,Serengeti,Nyamatare,500,TRUE,GeoData Consultants Ltd,WUG,,,1998,nira/tanira,nira/tanira,handpump,wug,user-group,never pay,never pay,soft,good,enough,enough,shallow well,shallow well,groundwater,hand pump,hand pump,non-functional
54877,5000,16/3/2011,Danida,1258,DANID,35.7951337,-7.48083356,none,Rufiji,Kibaoni,Iringa,11,1,Iringa Rural,Kihorogota,1,TRUE,GeoData Consultants Ltd,VWC,Kihoro,TRUE,1984,gravity,gravity,gravity,vwc,user-group,pay annually,annually,soft,good,enough,enough,spring,spring,groundwater,communal standpipe,communal standpipe,broken
39231,0,20/7/2011,Adb,1181,DWE,33.14167334,-2.14658974,School,Lake Victoria,Ccm,Mwanza,19,1,Ukerewe,Ngoma,800,TRUE,GeoData Consultants Ltd,,,TRUE,2007,nira/tanira,nira/tanira,handpump,vwc,user-group,pay when scheme fails,on failure,salty,salty,insufficient,insufficient,shallow well,shallow well,groundwater,hand pump,hand pump,functional
49178,0,19/3/2011,Government Of Tanzania,0,Gove,35.79656373,-5.81263063,Kanisa,Wami / Ruvu,Lusind,Dodoma,1,6,Bahi,Zanka,0,TRUE,GeoData Consultants Ltd,VWC,Maya,TRUE,0,mono,mono,motorpump,vwc,user-group,pay per bucket,per bucket,soft,good,enough,enough,machine dbh,borehole,groundwater,communal standpipe,communal standpipe,functional
22940,0,13/12/2012,Tabora Municipal Council,0,MWE,32.77431042,-4.91456653,Kwa Modesta,Lake Tanganyika,Misha Kati,Tabora,14,6,Tabora Urban,Misha,0,FALSE,GeoData Consultants Ltd,Other,Mradi wa maji wa misha,TRUE,0,other,other,other,other,other,never pay,never pay,soft,good,dry,dry,dam,dam,surface,communal standpipe,communal standpipe,non-functional
28945,0,40641,,0,,33.59620292,-9.3522683,Kwa Laitoni,Lake Nyasa,Mpuga,Mbeya,12,4,Rungwe,Kisondela,0,TRUE,GeoData Consultants Ltd,VWC,K,,0,gravity,gravity,gravity,vwc,user-group,never pay,never pay,soft,good,insufficient,insufficient,river,river/lake,surface,communal standpipe,communal standpipe,broken
24302,0,30/7/2011,Kkkt_makwale,0,KKKT _ Konde and DWE,33.94463396,-9.4685113,Kwa Benard Mwansasu,Lake Nyasa,Sebe 2,Mbeya,12,3,Kyela,Makwale,0,TRUE,GeoData Consultants Ltd,VWC,Makwale water supplied sche,TRUE,0,gravity,gravity,gravity,vwc,user-group,never pay,never pay,soft,good,enough,enough,spring,spring,groundwater,communal standpipe,communal standpipe,functional
4720,0,40634,Unicef,1366,DWE,34.55789311,-8.88959406,Kwa Mulumbage,Rufiji,Iponda,Iringa,11,4,Njombe,Ilembula,54,TRUE,GeoData Consultants Ltd,WUA,wanging'ombe supply scheme,TRUE,1978,gravity,gravity,gravity,wua,user-group,pay when scheme fails,on failure,soft,good,dry,dry,river,river/lake,surface,communal standpipe,communal standpipe,non-functional
16052,50,24/2/2011,Private,128,Wachina,38.86440139,-6.83030444,Kwa Mzee Rashidi,Wami / Ruvu,Bomu,Pwani,6,2,Kibaha,Soga,20,TRUE,GeoData Consultants Ltd,Parastatal,Upper ruvu,TRUE,2010,gravity,gravity,gravity,unknown,unknown,pay per bucket,per bucket,soft,good,insufficient,insufficient,river,river/lake,surface,communal standpipe,communal standpipe,non-functional
18314,0,26/2/2013,Tasaf,600,TASAF,37.3956246,-10.96868761,Kwa Potepote,Ruvuma / Southern Coast,Ukombozi,Ruvuma,10,1,Tunduru,Milingoti Mashariki,1,FALSE,GeoData Consultants Ltd,VWC,,FALSE,2003,other - swn 81,other handpump,handpump,vwc,user-group,never pay,never pay,soft,good,enough,enough,machine dbh,borehole,groundwater,hand pump,hand pump,non-functional
63241,200,22/3/2013,Kkkt Church,647,KKKT CHURCH,37.91077526,-4.49689047,Kwa Ally,Pangani,Mbuyuni A,Kilimanjaro,3,3,Same,Hedaru,250,TRUE,GeoData Consultants Ltd,Water authority,Hedaru kati water supply,TRUE,2010,gravity,gravity,gravity,vwc,user-group,pay monthly,monthly,soft,good,enough,enough,spring,spring,groundwater,communal standpipe,communal standpipe,functional
55345,0,18/3/2013,,1162,VWC,36.11399103,-2.72848445,Zahanati,Internal,Madukani,Arusha,2,6,Longido,Gelai Meirugoi,400,TRUE,GeoData Consultants Ltd,Parastatal,,,2005,gravity,gravity,gravity,parastatal,parastatal,never pay,never pay,soft,good,insufficient,insufficient,river,river/lake,surface,communal standpipe,communal standpipe,functional
17511,200,18/1/2013,Dwe,1232,DWE,30.33203353,-4.3089205,Kwa Bungwa,Lake Tanganyika,Nyakerera,Kigoma,16,2,Kasulu,Kitagata,500,TRUE,GeoData Consultants Ltd,Water authority,Nyachenda,TRUE,2003,gravity,gravity,gravity,vwc,user-group,pay monthly,monthly,soft,good,enough,enough,spring,spring,groundwater,communal standpipe,communal standpipe,functional
58868,0,41519,Rwssp,0,DWE,32.59538779,-3.81741562,Malunga,Lake Victoria,Malunga,Shinyanga,17,3,Kahama,Malunga,0,TRUE,GeoData Consultants Ltd,,,TRUE,0,other,other,other,wug,user-group,unknown,unknown,milky,milky,insufficient,insufficient,shallow well,shallow well,groundwater,other,other,non-functional
54,0,27/10/2012,Hesawa,1517,Hesawa,34.60465222,-1.8288033,Mifugo,Lake Victoria,Mifugo,Mara,20,2,Serengeti,Nyamoko,450,FALSE,GeoData Consultants Ltd,WUG,,,1996,other - rope pump,rope pump,rope pump,wug,user-group,never pay,never pay,soft,good,enough,enough,shallow well,shallow well,groundwater,hand pump,hand pump,non-functional
12089,0,25/3/2013,Wfp/tnt,1905,Active MKM,35.5058904,-2.37490497,Shuleni,Lake Victoria,Arashi,Arusha,2,5,Ngorongoro,Arash,400,TRUE,GeoData Consultants Ltd,Parastatal,,FALSE,2011,gravity,gravity,gravity,parastatal,parastatal,never pay,never pay,soft,good,seasonal,seasonal,rainwater harvesting,rainwater harvesting,surface,communal standpipe,communal standpipe,functional
49138,200,40819,Dhv,557,DWE,36.63557466,-8.62493424,Kwashirima,Rufiji,Chipweka,Morogoro,5,4,Ulanga,Msogezi,230,TRUE,GeoData Consultants Ltd,,,TRUE,1998,nira/tanira,nira/tanira,handpump,vwc,user-group,pay monthly,monthly,soft,good,enough,enough,shallow well,shallow well,groundwater,hand pump,hand pump,functional
50007,300,41071,Hesawa,1240,DWE,33.79369039,-1.96908406,Kwa James Ndaki,Lake Victoria,Nyamilama Ya Juu,Mara,20,4,Bunda,Kabasa,750,TRUE,GeoData Consultants Ltd,WUG,,FALSE,1986,swn 80,swn 80,handpump,wug,user-group,pay monthly,monthly,salty,salty,insufficient,insufficient,shallow well,shallow well,groundwater,hand pump,hand pump,functional
3740,6000,40605,Danida,1529,DANID,35.57900029,-7.86736004,none,Rufiji,Ilangi,Iringa,11,1,Iringa Rural,Kalenga,1,TRUE,GeoData Consultants Ltd,VWC,kaleng,TRUE,1985,gravity,gravity,gravity,vwc,user-group,pay annually,annually,soft,good,enough,enough,spring,spring,groundwater,communal standpipe,communal standpipe,functional
27561,0,41338,Soda,914,DWE,35.21865697,-10.8140368,Kwa Kaspari,Ruvuma / Southern Coast,Parokiani,Ruvuma,10,2,Songea Rural,Magagura,450,TRUE,GeoData Consultants Ltd,VWC,,FALSE,1996,nira/tanira,nira/tanira,handpump,vwc,user-group,pay when scheme fails,on failure,soft,good,seasonal,seasonal,shallow well,shallow well,groundwater,hand pump,hand pump,functional
51072,0,41519,,1415,,34.62159801,-5.17313618,Nyambi,Internal,Mfumbu,Singida,13,2,Singida Rural,Naintiri,1,TRUE,GeoData Consultants Ltd,VWC,M,,1970,mono,mono,motorpump,vwc,user-group,unknown,unknown,unknown,unknown,dry,dry,machine dbh,borehole,groundwater,communal standpipe,communal standpipe,non-functional
7691,0,16/3/2013,,1256,,36.71772211,-3.43276804,Olorieni Kati,Pangani,Olorieni,Arusha,2,3,Arusha Rural,Moshono,980,FALSE,GeoData Consultants Ltd,Water Board,G,,2000,gravity,gravity,gravity,water board,user-group,never pay,never pay,soft,good,insufficient,insufficient,spring,spring,groundwater,communal standpipe,communal standpipe,functional
34452,0,26/1/2013,Rwssp,0,DWE,32.52087025,-3.81047284,Kwa Maganga,Lake Tanganyika,Malindi,Shinyanga,17,3,Kahama,Zongomera,0,TRUE,GeoData Consultants Ltd,,,TRUE,0,swn 80,swn 80,handpump,wug,user-group,unknown,unknown,milky,milky,seasonal,seasonal,machine dbh,borehole,groundwater,hand pump,hand pump,functional
40704,0,40794,Unicef,530,DWE,37.61374013,-6.75716803,Shuleni,Wami / Ruvu,Lukobe,Morogoro,5,5,Morogoro Urban,Kihonda,150,TRUE,GeoData Consultants Ltd,VWC,Mazimbu,TRUE,1981,gravity,gravity,gravity,vwc,user-group,never pay,never pay,soft,good,insufficient,insufficient,river,river/lake,surface,communal standpipe,communal standpipe,non-functional
16551,0,16/7/2011,Plan Internatio,0,DWE,32.86327083,-2.62380804,Kwa Msende Kamula,Lake Victoria,Luchelele Ziwani,Mwanza,19,3,Nyamagana,Igogo,0,TRUE,GeoData Consultants Ltd,VWC,none,TRUE,0,nira/tanira,nira/tanira,handpump,vwc,user-group,never pay,never pay,soft,good,enough,enough,shallow well,shallow well,groundwater,hand pump,hand pump,non-functional
65771,0,41071,Hesawa,1223,DWE,33.80004818,-1.97867384,Kwa France,Lake Victoria,Nyamilama Chini,Mara,20,4,Bunda,Kabasa,250,TRUE,GeoData Consultants Ltd,WUG,,FALSE,1986,other,other,other,wug,user-group,unknown,unknown,salty,salty,enough,enough,shallow well,shallow well,groundwater,other,other,non-functional
4778,0,40762,,0,,33.65384309,-9.32934787,Kwa Mzee Gwalugano,Lake Nyasa,Mpuguso,Mbeya,12,4,Rungwe,Mpuguso,0,TRUE,GeoData Consultants Ltd,VWC,K,,0,gravity,gravity,gravity,vwc,user-group,never pay,never pay,soft,good,insufficient,insufficient,spring,spring,groundwater,communal standpipe,communal standpipe,functional
73552,0,41071,Netherlands,0,DWSP,33.36260038,-3.72776322,Nsebi,Internal,Ng'Honde,Shinyanga,17,3,Shinyanga Rural,Mwamala,0,TRUE,GeoData Consultants Ltd,VWC,,TRUE,0,afridev,afridev,handpump,vwc,user-group,never pay,never pay,soft,good,enough,enough,machine dbh,borehole,groundwater,hand pump,hand pump,non-functional
46823,0,40978,Wsdp,0,DWE,33.35718936,-3.61622935,Kwa Mzee Kinyongolo,Internal,Mwamapalala,Shinyanga,17,7,Shinyanga Urban,Chibe,0,TRUE,GeoData Consultants Ltd,WUG,,FALSE,0,nira/tanira,nira/tanira,handpump,wug,user-group,pay per bucket,per bucket,salty,salty,insufficient,insufficient,shallow well,shallow well,groundwater,hand pump,hand pump,non-functional
3979,0,41337,Adra,1282,Adra/Community,36.93062303,-3.34744723,Muraya,Pangani,Mlimini,Arusha,2,7,Meru,Kikatiti,140,TRUE,GeoData Consultants Ltd,VWC,Mambreni gravity water supply,TRUE,2003,gravity,gravity,gravity,vwc,user-group,unknown,unknown,soft,good,insufficient,insufficient,river,river/lake,surface,communal standpipe,communal standpipe,non-functional
5787,0,41307,Rwssp,0,DWE,32.47503445,-3.7744978,Kwa Seme,Lake Tanganyika,Ngogwa,Shinyanga,17,3,Kahama,Ngongwa,0,TRUE,GeoData Consultants Ltd,,,TRUE,0,other,other,other,vwc,user-group,unknown,unknown,milky,milky,seasonal,seasonal,shallow well,shallow well,groundwater,other,other,non-functional
55324,0,41367,Government Of Tanzania,-38,DWE,39.50874447,-8.52069429,Shuleni 2,Ruvuma / Southern Coast,Songosongo,Lindi,80,13,Kilwa,Songosongo,300,TRUE,GeoData Consultants Ltd,VWC,Songosongo Water supply,TRUE,1975,submersible,submersible,submersible,vwc,user-group,never pay,never pay,salty,salty,enough,enough,spring,spring,groundwater,communal standpipe multiple,communal standpipe,non-functional
24198,0,40551,Hesawa,0,DWE,33.15662457,-2.47866158,Kwa Ntemi,Lake Victoria,Chabula,Mwanza,19,2,Magu,Kongolo,0,TRUE,GeoData Consultants Ltd,VWC,,TRUE,0,other,other,other,vwc,user-group,never pay,never pay,soft,good,enough,enough,shallow well,shallow well,groundwater,other,other,non-functional
50916,50,24/2/2011,Wsdp,110,Wachina,38.86415625,-6.83087278,Ofisini,Wami / Ruvu,Bomu,Pwani,6,2,Kibaha,Soga,20,TRUE,GeoData Consultants Ltd,VWC,Upper Ruvu,TRUE,2010,mono,mono,motorpump,vwc,user-group,pay per bucket,per bucket,soft,good,insufficient,insufficient,river,river/lake,surface,communal standpipe,communal standpipe,non-functional
56187,500,40789,Ga,1336,Ga,36.87009799,-6.23300409,Kwa Njeni,Wami / Ruvu,Mkokani,Morogoro,5,1,Kilosa,Rubeho,250,TRUE,GeoData Consultants Ltd,VWC,Kw,TRUE,2000,gravity,gravity,gravity,vwc,user-group,pay monthly,monthly,soft,good,enough,enough,spring,spring,groundwater,communal standpipe,communal standpipe,broken
44196,0,29/7/2011,Danida,0,Central government,33.95579471,-9.50940445,Kwa Mbelako Llyolo,Lake Nyasa,Isyeto,Mbeya,12,3,Kyela,Lusungo,0,TRUE,GeoData Consultants Ltd,VWC,Ngamanga water supplied sch,TRUE,0,gravity,gravity,gravity,vwc,user-group,pay monthly,monthly,soft,good,enough,enough,spring,spring,groundwater,communal standpipe,communal standpipe,functional
37853,0,21/1/2013,Finw,347,FinW,39.47142325,-10.75506999,Tankini,Ruvuma / Southern Coast,Tankini,Mtwara,9,4,Tandahimba,Mdimba Mnyoma,1,TRUE,GeoData Consultants Ltd,Water Board,Borehole,TRUE,1982,submersible,submersible,submersible,vwc,user-group,never pay,never pay,soft,good,seasonal,seasonal,machine dbh,borehole,groundwater,communal standpipe,communal standpipe,broken
69786,0,40670,,0,,33.58422671,-9.20039177,Kwa Mzee Mwangoka,Lake Nyasa,Mkuka,Mbeya,12,4,Rungwe,Kyimo,0,TRUE,GeoData Consultants Ltd,VWC,I,,0,gravity,gravity,gravity,vwc,user-group,never pay,never pay,soft,good,insufficient,insufficient,spring,spring,groundwater,communal standpipe,communal standpipe,functional
59654,30,28/2/2011,Private Individual,251,Wa,38.3895592,-6.32917227,Mkawa,Wami / Ruvu,Barabarani,Pwani,6,1,Bagamoyo,Msata,20,FALSE,GeoData Consultants Ltd,WUA,Chalinze wate,TRUE,2003,ksb,submersible,submersible,private operator,commercial,pay per bucket,per bucket,soft,good,enough,enough,river,river/lake,surface,communal standpipe,communal standpipe,functional
51301,0,18/3/2011,World Bank,0,Gover,36.39926007,-6.75624575,Muyinga,Wami / Ruvu,Ipera,Dodoma,1,1,Mpwapwa,Kibakwe,0,TRUE,GeoData Consultants Ltd,VWC,Cham,TRUE,0,gravity,gravity,gravity,vwc,user-group,pay annually,annually,soft,good,insufficient,insufficient,spring,spring,groundwater,communal standpipe,communal standpipe,non-functional
27695,500,40608,Kkkt,1424,Villagers,35.03883464,-8.82961228,Kwa Spaudi Mangililo,Rufiji,Uhuru,Iringa,11,4,Njombe,Mahongole,40,TRUE,GeoData Consultants Ltd,VWC,,FALSE,2010,nira/tanira,nira/tanira,handpump,vwc,user-group,pay monthly,monthly,soft,good,enough,enough,hand dtw,borehole,groundwater,hand pump,hand pump,functional
18934,50,13/2/2013,Kiuma,686,KIUMA,36.95264934,-11.31588389,Kwa Nakanji,Ruvuma / Southern Coast,Nguvumali,Ruvuma,10,1,Tunduru,Marumba,1,FALSE,GeoData Consultants Ltd,VWC,Mbati Water Supply,FALSE,2011,submersible,submersible,submersible,vwc,user-group,pay per bucket,per bucket,soft,good,enough,enough,machine dbh,borehole,groundwater,communal standpipe multiple,communal standpipe,broken
46231,0,20/3/2013,Maxavella,1282,Kiliflora,36.75916018,-3.41939862,Olomitu,Pangani,Olomitu,Arusha,2,2,Arusha Rural,Mlangarini,150,TRUE,GeoData Consultants Ltd,VWC,Songota pipe line,TRUE,2011,gravity,gravity,gravity,vwc,user-group,never pay,never pay,soft,good,enough,enough,spring,spring,groundwater,communal standpipe multiple,communal standpipe,functional
64447,0,14/7/2011,Hesawa,0,LOCAL CONTRACT,31.57239755,-1.42926609,Kashunshu,Lake Victoria,Ikongora,Kagera,18,2,Bukoba Rural,Kaibanja,0,TRUE,GeoData Consultants Ltd,VWC,,TRUE,0,other,other,other,vwc,user-group,never pay,never pay,soft,good,enough,enough,shallow well,shallow well,groundwater,other,other,functional
25585,20,18/3/2013,Government Of Tanzania,1026,DWE,36.80499718,-3.47638431,Kwa Olaisi,Pangani,Marurani Juu,Arusha,2,2,Arusha Rural,Nduruma,100,TRUE,GeoData Consultants Ltd,VWC,Machumba estate pipe line,TRUE,2000,gravity,gravity,gravity,vwc,user-group,pay per bucket,per bucket,soft,good,insufficient,insufficient,spring,spring,groundwater,communal standpipe,communal standpipe,broken
6850,0,16/3/2013,,954,,35.85663545,-3.38368329,Kwa Mahaza,Internal,Magomeni,Arusha,2,1,Monduli,Esilalei,1,FALSE,GeoData Consultants Ltd,WUA,A,,2000,gravity,gravity,gravity,wua,user-group,never pay,never pay,soft,good,enough,enough,spring,spring,groundwater,communal standpipe,communal standpipe,non-functional
34431,1000,16/3/2011,Mkinga  Distric Cou,0,DWE,38.80230461,-4.86125935,Julias Hiza,Pangani,Kati,Tanga,4,8,Mkinga,Maramba,50,TRUE,GeoData Consultants Ltd,Private operator,Maramba gravity spri,TRUE,1990,gravity,gravity,gravity,private operator,commercial,pay monthly,monthly,soft,good,insufficient,insufficient,spring,spring,groundwater,communal standpipe,communal standpipe,functional
52560,0,40763,Hifab,0,Hesawa,33.50608769,-2.86826371,Igulya B,Lake Victoria,Igulya B,Mwanza,19,4,Kwimba,Maligisu,0,TRUE,GeoData Consultants Ltd,VWC,,TRUE,0,nira/tanira,nira/tanira,handpump,vwc,user-group,never pay,never pay,soft,good,enough,enough,shallow well,shallow well,groundwater,hand pump,hand pump,functional
41741,100,20/2/2011,W.B,107,RDC,39.05722753,-7.63084908,Mlawa,Rufiji,Mkundi,Pwani,60,53,Rufiji,Bungu,1,TRUE,GeoData Consultants Ltd,VWC,,TRUE,2004,mono,mono,motorpump,vwc,user-group,pay per bucket,per bucket,soft,good,enough,enough,machine dbh,borehole,groundwater,communal standpipe,communal standpipe,non-functional
62696,0,41040,Dwsp,0,DWSP,33.31214927,-3.76082992,Kwa Mohambo Ntunu,Internal,Kondogwa,Shinyanga,17,3,Shinyanga Rural,Mwamala,0,TRUE,GeoData Consultants Ltd,WUG,,TRUE,0,nira/tanira,nira/tanira,handpump,wug,user-group,never pay,never pay,soft,good,insufficient,insufficient,shallow well,shallow well,groundwater,hand pump,hand pump,functional
26293,0,18/3/2013,0,-17,0,39.43371534,-7.09627911,Shuleni,Wami / Ruvu,Shuleni,Dar es Salaam,7,3,Temeke,Pemba Mnazi,140,TRUE,GeoData Consultants Ltd,VWC,,FALSE,1980,mono,mono,motorpump,vwc,user-group,never pay,never pay,salty,salty,dry,dry,machine dbh,borehole,groundwater,other,other,non-functional
7933,0,13/3/2013,,1346,,36.68824574,-3.38078323,Jamhuri Chemchem,Pangani,Jamhuri,Arusha,2,3,Arusha Urban,Daraja Mbili,2100,TRUE,GeoData Consultants Ltd,Water authority,G,,2000,gravity,gravity,gravity,water authority,commercial,never pay,never pay,soft,good,enough,enough,spring,spring,groundwater,communal standpipe,communal standpipe,functional
53413,0,29/3/2011,Government Of Tanzania,0,Centr,35.39122669,-5.29272864,Gumbu_Kati,Internal,Gumbu-Kati,Dodoma,1,1,Kondoa,Sanzawa,0,TRUE,GeoData Consultants Ltd,VWC,Gumb,FALSE,0,cemo,other motorpump,motorpump,vwc,user-group,pay per bucket,per bucket,soft,good,enough,enough,machine dbh,borehole,groundwater,communal standpipe multiple,communal standpipe,non-functional
3077,500,15/4/2011,Rc Church,1880,ACRA,34.73893793,-9.197162,Kwa Mhando,Rufiji,Kati,Iringa,11,4,Njombe,Mdandu,75,TRUE,GeoData Consultants Ltd,WUA,mtwango water supply scheme,TRUE,2009,gravity,gravity,gravity,wua,user-group,pay monthly,monthly,soft,good,enough,enough,spring,spring,groundwater,communal standpipe,communal standpipe,functional
41162,0,15/7/2011,No,1536,DWE,31.04447027,-7.50921781,Kalondang'Ombe,Lake Tanganyika,Kipundu Kati,Rukwa,15,3,Nkasi,Namanyere,1,,GeoData Consultants Ltd,VWC,,FALSE,1987,other,other,other,vwc,user-group,unknown,unknown,unknown,unknown,unknown,unknown,machine dbh,borehole,groundwater,other,other,non-functional
757,0,41253,Halmashauri Ya Wilaya Sikonge,0,Halmashauri ya wilaya sikonge,32.73331789,-5.76236558,Kwa Buhoro,Lake Tanganyika,Udongo Magharibi,Tabora,14,5,Sikonge,Ipole,0,TRUE,GeoData Consultants Ltd,VWC,Mradi wa maji wa Ipole,TRUE,0,other,other,other,vwc,user-group,pay per bucket,per bucket,soft,good,dry,dry,spring,spring,groundwater,communal standpipe,communal standpipe,non-functional
49453,0,29/3/2013,World Vision,1576,World Vision,37.88913692,-4.26978864,Kwa Kimei,Pangani,Mheta,Kilimanjaro,3,3,Same,Chome,80,TRUE,GeoData Consultants Ltd,Water authority,Marieni Makanya water supply,TRUE,2003,gravity,gravity,gravity,vwc,user-group,never pay,never pay,soft,good,insufficient,insufficient,river,river/lake,surface,communal standpipe,communal standpipe,functional
32376,0,40551,Government Of Tanzania,0,Government,0,-0.00000002,Polisi,Lake Victoria,Center,Mwanza,19,6,Geita,Nyang'hwale,0,TRUE,GeoData Consultants Ltd,VWC,Nyang'hwale,TRUE,0,submersible,submersible,submersible,vwc,user-group,unknown,unknown,unknown,unknown,dry,dry,machine dbh,borehole,groundwater,communal standpipe multiple,communal standpipe,non-functional
33321,0,41427,Japan,1227,TWESA,30.48998258,-3.59473091,Nzingwa A,Lake Tanganyika,Mission,Kigoma,16,1,Kibondo,Mabamba,350,TRUE,GeoData Consultants Ltd,VWC,,FALSE,2009,nira/tanira,nira/tanira,handpump,vwc,user-group,unknown,unknown,soft,good,seasonal,seasonal,shallow well,shallow well,groundwater,hand pump,hand pump,functional
22600,30,40789,Wd And Id,65,WD and ID,38.66448715,-5.80141695,Kwa Mkangara,Pangani,Mtakuja,Tanga,4,5,Pangani,Mkalamo,150,FALSE,GeoData Consultants Ltd,VWC,,FALSE,1973,submersible,submersible,submersible,vwc,user-group,pay per bucket,per bucket,salty,salty,insufficient,insufficient,machine dbh,borehole,groundwater,communal standpipe multiple,communal standpipe,non-functional
6854,30,15/3/2013,District Council,2166,District water depar,35.61963772,-2.05577817,Lota,Internal,Magharibi,Arusha,2,5,Ngorongoro,Olgosorok,1,TRUE,GeoData Consultants Ltd,VWC,Ngwarwa water scheme,TRUE,1996,gravity,gravity,gravity,vwc,user-group,pay per bucket,per bucket,soft,good,insufficient,insufficient,spring,spring,groundwater,communal standpipe,communal standpipe,non-functional
52427,200,41580,Norad,988,DWE,29.64248841,-4.76202045,Kwa Hawam Baranyikwa,Lake Tanganyika,Kagina,Kigoma,16,3,Kigoma Rural,Kagongo,320,TRUE,GeoData Consultants Ltd,VWC,Mgaraganza water project,TRUE,1984,gravity,gravity,gravity,vwc,user-group,pay monthly,monthly,soft,good,enough,enough,spring,spring,groundwater,other,other,non-functional
14052,0,41489,Hesawa,1639,HESAWA,34.6704827,-1.83620792,Chacha Matiko,Lake Victoria,Stendi Mpya,Mara,20,2,Serengeti,Mugumu Urban,1000,,GeoData Consultants Ltd,Other,,TRUE,1997,nira/tanira,nira/tanira,handpump,unknown,unknown,never pay,never pay,soft,good,insufficient,insufficient,shallow well,shallow well,groundwater,hand pump,hand pump,non-functional
5683,1000,41336,Mission,1013,DWE,35.26374148,-10.51848383,Kwa Kolobiniani,Lake Nyasa,Dodoma Juu,Ruvuma,10,2,Songea Rural,Kilagano,1000,TRUE,GeoData Consultants Ltd,VWC,Mradi wa maji wa kilagano,TRUE,2011,gravity,gravity,gravity,vwc,user-group,pay monthly,monthly,soft,good,enough,enough,river,river/lake,surface,communal standpipe,communal standpipe,functional
55077,0,13/7/2011,Jica,0,DWE,31.11002625,-1.86979865,Kamanungu,Lake Victoria,Kamanungu,Kagera,18,1,Karagwe,Nyakasimbi,0,TRUE,GeoData Consultants Ltd,,,TRUE,0,india mark ii,india mark ii,handpump,vwc,user-group,never pay,never pay,soft,good,enough,enough,shallow well,shallow well,groundwater,hand pump,hand pump,functional
72279,0,41610,Mgaya Masese,1277,Mgaya Masese,34.26067322,-1.71456596,Mgaya Masese,Lake Victoria,Geteba,Mara,20,2,Serengeti,Kenyamonta,60,,GeoData Consultants Ltd,Other,,TRUE,2006,other - rope pump,rope pump,rope pump,other,other,never pay,never pay,salty,salty,insufficient,insufficient,shallow well,shallow well,groundwater,hand pump,hand pump,functional
22632,50,25/3/2013,0,85,0,39.18047493,-6.71863207,Magati,Wami / Ruvu,Kinzudi,Dar es Salaam,7,1,Kinondoni,Goba,221,TRUE,GeoData Consultants Ltd,VWC,G,FALSE,1970,submersible,submersible,submersible,vwc,user-group,pay per bucket,per bucket,soft,good,dry,dry,river,river/lake,surface,communal standpipe,communal standpipe,non-functional
46503,0,40639,Adb,1802,DWE,34.77057067,-9.09392798,Kwa Nebat Magoha,Rufiji,Iwawa,Iringa,11,4,Njombe,Mdandu,75,TRUE,GeoData Consultants Ltd,VWC,itulahumba water supply sch,TRUE,2009,gravity,gravity,gravity,vwc,user-group,pay when scheme fails,on failure,soft,good,enough,enough,spring,spring,groundwater,communal standpipe,communal standpipe,functional
46006,0,24/7/2011,Government Of Tanzania,1200,RWE,32.92662151,-1.99575755,Mitimirefu,Lake Victoria,Mitimirefu,Mwanza,19,1,Ukerewe,Muriti,300,TRUE,GeoData Consultants Ltd,VWC,Muriti Water Supply,TRUE,1974,other,other,other,vwc,user-group,never pay,never pay,soft,good,insufficient,insufficient,lake,river/lake,surface,communal standpipe multiple,communal standpipe,non-functional
70374,200,41344,Government Of Tanzania,597,Government,38.0106439,-4.1552037,Kwa Joseph,Pangani,Njiro,Kilimanjaro,3,3,Same,Kisiwani,120,TRUE,GeoData Consultants Ltd,Water authority,Igoma,TRUE,1967,gravity,gravity,gravity,vwc,user-group,pay monthly,monthly,soft,good,enough,enough,spring,spring,groundwater,other,other,non-functional
40635,0,27/3/2013,Unicef,1186,RWE,37.3067591,-3.25853068,Kwa Michael Kimaro,Pangani,Isiye Kusini,Kilimanjaro,3,4,Moshi Rural,Kirima,1,FALSE,GeoData Consultants Ltd,VWC,Utaruni pipeline,TRUE,1980,gravity,gravity,gravity,vwc,user-group,never pay,never pay,soft,good,insufficient,insufficient,spring,spring,groundwater,other,other,non-functional
61217,0,40670,,0,,33.54199665,-9.23297622,Kwa Mzee Lugilo,Lake Nyasa,Ndebele,Mbeya,12,4,Rungwe,Kyimo,0,TRUE,GeoData Consultants Ltd,VWC,I,,0,gravity,gravity,gravity,vwc,user-group,never pay,never pay,soft,good,enough,enough,spring,spring,groundwater,communal standpipe,communal standpipe,functional
1285,0,26/2/2011,Private Individual,2246,Villa,34.59818494,-9.5547121,none,Lake Nyasa,Mjimwema,Iringa,11,4,Njombe,Matola,20,FALSE,GeoData Consultants Ltd,VWC,Nyamno,TRUE,2009,gravity,gravity,gravity,vwc,user-group,never pay,never pay,soft,good,insufficient,insufficient,spring,spring,groundwater,communal standpipe,communal standpipe,functional
43854,0,41039,Hesawa,0,DWE,0,-0.00000002,Kwa Bujilima,Lake Victoria,Iwelimo,Mwanza,19,2,Magu,Nyaluhande,0,TRUE,GeoData Consultants Ltd,VWC,,TRUE,0,nira/tanira,nira/tanira,handpump,vwc,user-group,never pay,never pay,soft,good,enough,enough,shallow well,shallow well,groundwater,hand pump,hand pump,functional
9225,0,20/3/2013,0,17,0,39.41312727,-7.03141135,Mkamba Shuleni,Wami / Ruvu,Shuleni,Dar es Salaam,7,3,Temeke,Kisarawe II,140,TRUE,GeoData Consultants Ltd,Parastatal,,FALSE,2010,submersible,submersible,submersible,parastatal,parastatal,never pay,never pay,soft,good,enough,enough,machine dbh,borehole,groundwater,communal standpipe,communal standpipe,broken
27069,0,41344,Government Of Tanzania,665,Government,37.95085516,-4.13497676,Sokono,Pangani,Mwerera,Kilimanjaro,3,3,Same,Kisiwani,120,TRUE,GeoData Consultants Ltd,Water authority,Nakombo,TRUE,1967,gravity,gravity,gravity,vwc,user-group,never pay,never pay,soft,good,enough,enough,river,river/lake,surface,communal standpipe multiple,communal standpipe,non-functional
16672,0,14/4/2011,Water,0,DWE,35.7777087,-4.54231254,Msikitini,Internal,Bumburyahe,Dodoma,1,1,Kondoa,Masange,0,TRUE,GeoData Consultants Ltd,VWC,Kand,FALSE,0,gravity,gravity,gravity,vwc,user-group,never pay,never pay,soft,good,enough,enough,spring,spring,groundwater,communal standpipe,communal standpipe,functional
34283,0,41338,Adra,1128,Adra /Community,36.96842101,-3.36536333,Neema,Pangani,Ndrumanga,Arusha,2,7,Meru,Kikatiti,152,TRUE,GeoData Consultants Ltd,VWC,Maambreni gravity water supply,TRUE,1999,gravity,gravity,gravity,vwc,user-group,unknown,unknown,soft,good,insufficient,insufficient,river,river/lake,surface,communal standpipe,communal standpipe,non-functional
38922,1000,14/2/2013,Government Of Tanzania,1310,DWE,30.56418707,-3.63051194,Tasianu,Lake Tanganyika,Bikera,Kigoma,16,1,Kibondo,Itaba,300,TRUE,GeoData Consultants Ltd,VWC,Kigogo gravity water supply,FALSE,2010,gravity,gravity,gravity,vwc,user-group,pay annually,annually,soft,good,enough,enough,spring,spring,groundwater,communal standpipe,communal standpipe,non-functional
49609,0,26/3/2011,Go,330,Go,37.04392391,-7.55540059,Kwa Kiarage,Rufiji,Kijijini,Morogoro,5,1,Kilosa,Ruhembe,95,TRUE,GeoData Consultants Ltd,VWC,,TRUE,1981,other,other,other,vwc,user-group,never pay,never pay,salty,salty,enough,enough,shallow well,shallow well,groundwater,other,other,non-functional
10634,1500,26/2/2013,Danida,787,DWE,35.67175096,-10.19777116,Kwa Odo,Lake Nyasa,Mabatini,Ruvuma,10,2,Songea Rural,Gumbiro,750,TRUE,GeoData Consultants Ltd,VWC,,TRUE,1983,india mark ii,india mark ii,handpump,vwc,user-group,pay annually,annually,soft,good,seasonal,seasonal,shallow well,shallow well,groundwater,hand pump,hand pump,functional
70331,0,40850,Conce,721,Conce,35.47919984,-7.45147463,none,Rufiji,Mlimani,Iringa,11,1,Iringa Rural,Ilolo Mpya,1,TRUE,GeoData Consultants Ltd,VWC,Ilolo,TRUE,2000,gravity,gravity,gravity,vwc,user-group,never pay,never pay,soft,good,dry,dry,spring,spring,groundwater,communal standpipe,communal standpipe,non-functional
55359,0,22/10/2012,Hesawa,1468,Hesawa,34.68416627,-1.65280688,Mwita Gaibe,Lake Victoria,Jerumani,Mara,20,2,Serengeti,Machochwe,530,TRUE,GeoData Consultants Ltd,WUG,,,2010,gravity,gravity,gravity,vwc,user-group,never pay,never pay,soft,good,enough,enough,dam,dam,surface,communal standpipe multiple,communal standpipe,functional
52627,0,40756,Kkkt_makwale,0,KKKT _ Konde and DWE,34.00631,-9.45334153,Kwa Anyingisye Mwasambog,Lake Nyasa,Kilanga,Mbeya,12,3,Kyela,Matema,0,TRUE,GeoData Consultants Ltd,VWC,Makwale water supplied sche,TRUE,0,gravity,gravity,gravity,vwc,user-group,never pay,never pay,soft,good,enough,enough,spring,spring,groundwater,communal standpipe,communal standpipe,functional
16855,0,40547,Kkkt,0,KKKT,32.79325317,-9.13686032,Shombe,Lake Rukwa,Chilulumo,Mbeya,12,6,Mbozi,Ihanda,0,TRUE,GeoData Consultants Ltd,VWC,,FALSE,0,nira/tanira,nira/tanira,handpump,vwc,user-group,pay when scheme fails,on failure,soft,good,enough,enough,shallow well,shallow well,groundwater,hand pump,hand pump,functional
22677,0,40759,Kkkt,0,KKKT,33.15621801,-8.93715028,Charles Tembo,Lake Rukwa,Nandago,Mbeya,12,6,Mbozi,Ruanda,0,TRUE,GeoData Consultants Ltd,VWC,,FALSE,0,nira/tanira,nira/tanira,handpump,vwc,user-group,pay when scheme fails,on failure,soft,good,insufficient,insufficient,shallow well,shallow well,groundwater,hand pump,hand pump,non-functional
3777,500,16/7/2011,Government Of Tanzania,1763,DWE,31.51670542,-8.18619122,Kwa Charles Dominick,Lake Tanganyika,Msanzi Kati,Rukwa,15,2,Sumbawanga Rural,Msanzi,100,TRUE,GeoData Consultants Ltd,VWC,Msanzi water Supply,TRUE,1972,gravity,gravity,gravity,vwc,user-group,pay when scheme fails,on failure,soft,good,enough,enough,river,river/lake,surface,communal standpipe,communal standpipe,functional
68528,50,13/3/2013,0,-27,0,39.34271659,-6.85164021,Kwa Mzee Bozi,Wami / Ruvu,Mji Mwema,Dar es Salaam,7,3,Temeke,Mji Mwema,30,TRUE,GeoData Consultants Ltd,SWC,,FALSE,2000,mono,mono,motorpump,other - school,other,pay per bucket,per bucket,salty,salty,enough,enough,machine dbh,borehole,groundwater,communal standpipe,communal standpipe,functional
29669,500,15/3/2013,Germany Republi,757,CES,37.29964105,-3.43840725,Kikavu Senta,Pangani,Mabatini,Kilimanjaro,3,5,Hai,Machame Kusini,500,TRUE,GeoData Consultants Ltd,Water Board,Mkalama Water supply,TRUE,2010,gravity,gravity,gravity,water board,user-group,other,other,soft,good,enough,enough,spring,spring,groundwater,communal standpipe,communal standpipe,functional
46257,0,27/7/2011,,0,,33.5434954,-9.16057078,Kwa Adam,Lake Nyasa,Kibumbe,Mbeya,12,4,Rungwe,Kiwira,0,TRUE,GeoData Consultants Ltd,VWC,K,,0,gravity,gravity,gravity,vwc,user-group,never pay,never pay,soft,good,insufficient,insufficient,spring,spring,groundwater,communal standpipe,communal standpipe,functional
55042,0,17/4/2011,Water,0,DWE,35.91566817,-4.70561848,Shule Ya Msingi Ikova,Internal,Ikova,Dodoma,1,1,Kondoa,Pahi,0,TRUE,GeoData Consultants Ltd,VWC,Pahi,FALSE,0,gravity,gravity,gravity,vwc,user-group,never pay,never pay,soft,good,enough,enough,spring,spring,groundwater,communal standpipe,communal standpipe,broken
73968,0,17/4/2011,Bsf,0,DWE,35.9492313,-4.76933631,Kwa Mwenda,Internal,Kuuta,Dodoma,1,1,Kondoa,Haubi,0,TRUE,GeoData Consultants Ltd,WUG,Kuut,FALSE,0,nira/tanira,nira/tanira,handpump,wug,user-group,never pay,never pay,soft,good,enough,enough,shallow well,shallow well,groundwater,hand pump,hand pump,functional
46317,0,29/7/2011,He,0,HE,31.60305482,-1.77016599,Kiiga,Lake Victoria,Kiga,Kagera,18,3,Muleba,Kashasha,0,TRUE,GeoData Consultants Ltd,VWC,,TRUE,0,nira/tanira,nira/tanira,handpump,vwc,user-group,never pay,never pay,soft,good,enough,enough,shallow well,shallow well,groundwater,hand pump,hand pump,non-functional
32255,30,24/3/2011,African Relie,19,Af,38.98411519,-6.5532638,Mtunguzi,Wami / Ruvu,Chambeo,Pwani,6,1,Bagamoyo,Zinga/Ikerege,50,TRUE,GeoData Consultants Ltd,VWC,,FALSE,2009,submersible,submersible,submersible,vwc,user-group,pay per bucket,per bucket,soft,good,enough,enough,machine dbh,borehole,groundwater,communal standpipe,communal standpipe,non-functional
102,0,20/1/2013,Tcrs,1294,TCRS,30.38643948,-5.57267411,Plot 45,Lake Tanganyika,Barabara 1,Rukwa,15,1,Mpanda,Mishamo,145,TRUE,GeoData Consultants Ltd,Water authority,,TRUE,1985,other,other,other,water authority,commercial,never pay,never pay,soft,good,enough,enough,machine dbh,borehole,groundwater,hand pump,hand pump,non-functional
2829,0,22/10/2012,Caltaz Kahama,0,CALTAZ KAHAMA,32.26183402,-3.36975122,Butimba,Lake Tanganyika,Butimba,Shinyanga,17,5,Bukombe,Ushirika,0,FALSE,GeoData Consultants Ltd,VWC,,TRUE,0,swn 80,swn 80,handpump,vwc,user-group,unknown,unknown,soft,good,dry,dry,shallow well,shallow well,groundwater,hand pump,hand pump,non-functional
30241,0,25/2/2011,Mdc,1703,DWE,35.30328974,-8.1517771,none,Rufiji,M,Iringa,11,2,Mufindi,Isalavanu,0,TRUE,GeoData Consultants Ltd,VWC,Mad,TRUE,0,gravity,gravity,gravity,vwc,user-group,never pay,never pay,soft,good,enough,enough,spring,spring,groundwater,communal standpipe,communal standpipe,functional
23262,0,41255,Pentecosta Church,0,Pentecost church,32.90933066,-5.06929521,Kwa Mgoha,Lake Tanganyika,Inala One,Tabora,14,6,Tabora Urban,Ndevelwa,0,TRUE,GeoData Consultants Ltd,VWC,,TRUE,0,other,other,other,vwc,user-group,never pay,never pay,milky,milky,seasonal,seasonal,shallow well,shallow well,groundwater,other,other,non-functional
7383,0,40728,,0,,34.38209564,-8.70064708,Kwa Mganga,Rufiji,Ccm,Mbeya,12,7,Mbarali,Rujewa,0,FALSE,GeoData Consultants Ltd,Water Board,,TRUE,0,gravity,gravity,gravity,water board,user-group,never pay,never pay,coloured,colored,seasonal,seasonal,river,river/lake,surface,communal standpipe,communal standpipe,broken
71236,0,31/10/2012,Aict,1248,AICT,34.12826279,-1.98819412,Shuleni,Lake Victoria,Sabasita,Mara,20,4,Bunda,Hunyari,348,FALSE,GeoData Consultants Ltd,Parastatal,,FALSE,2008,gravity,gravity,gravity,parastatal,parastatal,unknown,unknown,soft,good,seasonal,seasonal,rainwater harvesting,rainwater harvesting,surface,communal standpipe,communal standpipe,functional
24757,0,16/3/2013,Government Of Tanzania,980,DWE,37.33476236,-3.30046366,Kwa Kalisti Msaki,Pangani,Kariwa Kaskazini,Kilimanjaro,3,4,Moshi Rural,Uru Kusini Mawela,100,TRUE,GeoData Consultants Ltd,Water Board,Huru mawela water project,TRUE,1972,gravity,gravity,gravity,water board,user-group,never pay,never pay,soft,good,insufficient,insufficient,spring,spring,groundwater,communal standpipe,communal standpipe,broken
37906,0,17/3/2013,,1250,,36.72431348,-3.43410167,Olorieni Mbugani,Pangani,Olorieni,Arusha,2,3,Arusha Rural,Moshono,1,FALSE,GeoData Consultants Ltd,Water Board,A,,2000,gravity,gravity,gravity,water board,user-group,never pay,never pay,soft,good,insufficient,insufficient,spring,spring,groundwater,communal standpipe,communal standpipe,functional
10342,1200,17/3/2011,Government Of Tanzania,1061,Commu,34.1115539,-8.84645501,none,Rufiji,Luhovelo,Iringa,11,3,Makete,Mfumbi,0,TRUE,GeoData Consultants Ltd,WUA,Mfumbi,TRUE,1990,gravity,gravity,gravity,wua,user-group,pay annually,annually,soft,good,enough,enough,spring,spring,groundwater,communal standpipe,communal standpipe,functional
41064,0,27/10/2012,Rwssp,0,DWE,32.37488694,-3.90063613,Kasela,Lake Tanganyika,Imalangi,Shinyanga,17,3,Kahama,Mpunze,0,TRUE,GeoData Consultants Ltd,,,TRUE,0,other,other,other,wug,user-group,unknown,unknown,milky,milky,insufficient,insufficient,shallow well,shallow well,groundwater,other,other,functional
19146,0,23/1/2013,Ministry Of Water,1084,Idara ya maji,34.97618033,-5.70909902,Kwa Katalambula,Internal,Saranda Kati,Singida,13,3,Manyoni,Kilimatinde,350,TRUE,GeoData Consultants Ltd,VWC,Saranda water supply,FALSE,1972,mono,mono,motorpump,vwc,user-group,never pay,never pay,soft,good,enough,enough,machine dbh,borehole,groundwater,communal standpipe multiple,communal standpipe,broken
19206,500,16/2/2013,Vwc,1042,VWC,35.78779505,-10.42495974,Kwa Ibrahimu Nyoni,Lake Nyasa,Bombambili,Ruvuma,10,5,Namtumbo,Msindo,90,TRUE,GeoData Consultants Ltd,VWC,Majimingi,TRUE,2009,gravity,gravity,gravity,vwc,user-group,pay annually,annually,soft,good,enough,enough,river,river/lake,surface,communal standpipe,communal standpipe,functional
114,0,20/3/2011,World Bank,159,World,38.17085213,-6.83867874,Shuleni,Wami / Ruvu,Lukasi,Morogoro,5,2,Morogoro Rural,Ngerengere,50,TRUE,GeoData Consultants Ltd,VWC,,TRUE,2000,gravity,gravity,gravity,vwc,user-group,never pay,never pay,soft,good,seasonal,seasonal,rainwater harvesting,rainwater harvesting,surface,communal standpipe,communal standpipe,non-functional
